[{"name":"NRG-Sports-Αιτωλοακαρνανίας-Μεσολόγγι","phoneNumber":"2631028053","long":"21.43034","lat":"38.36945","address":"Ελεύθερων Πολιορκημένων Μεσολόγγι, 30200"},{"name":"NRG-Sports-Αιτωλοακαρνανίας-Ναύπακτος","phoneNumber":"2634022672","long":"21.83125","lat":"38.39401","address":"Τζαβέλα Ναύπακτος, 30300"},{"name":"NRG-Sports-Αργολίδας-Άργος","phoneNumber":"2751024848","long":"22.72282","lat":"37.63481","address":"Πολυγένους Άργος, 21200"},{"name":"NRG-Sports-Αργολίδας-Άργος","phoneNumber":"2751024848","long":"22.72285","lat":"37.63482","address":"Πολυγένους Άργος, "},{"name":"NRG-Sports-Αργολίδας-Ναύπλιο","phoneNumber":"2752024992","long":"22.80671","lat":"37.57105","address":"Άργους Ναύπλιο, "},{"name":"NRG-Sports-Αργολίδας-Ναύπλιο","phoneNumber":"2752029944","long":"22.80759","lat":"37.57131","address":"Χαριλάου Τρικούπη Ναύπλιο, 21100"},{"name":"NRG-Sports-Αττική-Αγία Παρασκευή","phoneNumber":"2106008087","long":"23.81101","lat":"38.01115","address":"Λεωφόρος Μεσογείων Αγία Παρασκευή, 15341"},{"name":"NRG-Sports-Αττική-Άγιος Στέφανος","phoneNumber":"2105904000","long":"23.85470","lat":"38.13838","address":"Χέλμου Άγιος Στέφανος, 14565"},{"name":"NRG-Sports-Αττική-Αθήνα-Κυψέλη","phoneNumber":"2108253001","long":"23.74589","lat":"38.00329","address":"Βελβένδου Αθήνα, "},{"name":"NRG-Sports-Αττική-Αιγάλεω","phoneNumber":"2105314840","long":"23.68035","lat":"37.99185","address":"Ιερά Οδός Αιγάλεω, "},{"name":"NRG-Sports-Αττική-Αιγάλεω","phoneNumber":"2105986305","long":"23.68282","lat":"37.99828","address":"Θηβών Αιγάλεω, "},{"name":"NRG-Sports-Αττική-Γαλάτσι","phoneNumber":"2102930931","long":"23.75344","lat":"38.01151","address":"Ελευθερίου Βενιζέλου Γαλάτσι, "},{"name":"NRG-Sports-Αττική-Ηλιούπολη","phoneNumber":"2109944908","long":"23.75618","lat":"37.93318","address":"Λεωφόρος Ειρήνης Ηλιούπολη, "},{"name":"NRG-Sports-Αττική-Μενίδι","phoneNumber":"2102401848","long":"23.73647","lat":"38.08151","address":"Πάρνηθος Μενίδι, "},{"name":"NRG-Sports-Αττική-Περιστέρι","phoneNumber":"2105764420","long":"23.67371","lat":"38.01426","address":"Αγίας Τριάδος Περιστέρι, 12461"},{"name":"NRG-Sports-Αττική-Περιστέρι","phoneNumber":"2105912903","long":"23.68766","lat":"38.00411","address":"Τζών Κέννεντυ Περιστέρι, "},{"name":"NRG-Sports-Αχαΐας-Αίγιο","phoneNumber":"2691021329","long":"22.08886","lat":"38.24903","address":"Κλεομένους Οικονόμου Αίγιο, 25100"},{"name":"NRG-Sports-Αχαΐας-Πάτρα","phoneNumber":"2610223316","long":"21.73875","lat":"38.24860","address":"Κορίνθου Πάτρα, 26221"},{"name":"NRG-Sports-Βοιωτίας-Θήβα","phoneNumber":"2262082177","long":"23.31824","lat":"38.31923","address":"Οιδίποδος Θήβα, 32200"},{"name":"NRG-Sports-Βοιωτίας-Θήβα","phoneNumber":"2262021977","long":"23.31784","lat":"38.31663","address":"Επαμεινώνδα Θήβα, "},{"name":"NRG-Sports-Ηρακλείου-Ηράκλειο","phoneNumber":"2810222678","long":"25.12553","lat":"35.33757","address":"Λεωφόρος Καλοκαιρινού Ηράκλειο, "},{"name":"NRG-Sports-Ηρακλείου-Ηράκλειο","phoneNumber":"2810311108","long":"25.11909","lat":"35.33587","address":"Λεωφόρος 62 Μαρτύρων Ηράκλειο, "},{"name":"NRG-Sports-Ηρακλείου-Νέα Αλικαρνασσος","phoneNumber":"2810281630","long":"25.13170","lat":"35.33760","address":"Κατεχάκη Νέα Αλικαρνασσός, "},{"name":"NRG-Sports-Καρδίτσας-Καρδίτσα","phoneNumber":"2441071881","long":"21.92250","lat":"39.36493","address":"Βάλβη Καρδίτσα, 43100"},{"name":"NRG-Sports-Λακωνίας-Σπάρτη","phoneNumber":"2731029832","long":"22.43111","lat":"37.07229","address":"Κωνσταντίνου Παλαιολόγου Σπάρτη, 23100"},{"name":"NRG-Sports-Ρεθύμνου-Ρέθυμνο","phoneNumber":"2831056823","long":"24.47869","lat":"35.36579","address":"Κουντουριώτου Ρέθυμνο, "},{"name":"NRG-Sports-Ρεθύμνου-Ρέθυμνο","phoneNumber":"2831056380","long":"24.47587","lat":"35.36942","address":"Αρκαδίου Ρέθυμνο, "},{"name":"NRG-Sports-Φθιώτιδας-Λαμία","phoneNumber":"2231039958","long":"22.43523","lat":"38.89957","address":"Χατζοπούλου Λαμία, "},{"name":"NRG-Sports-Χανίων-Χανιά","phoneNumber":"2821075364","long":"24.01424","lat":"35.51230","address":"Κυδωνίας Χανιά, "},{"name":"NRG-Sports-Χίου-Χίος","phoneNumber":"2271024743","long":"26.13718","lat":"38.36995","address":"Ελευθερίου Βενιζέλου Χίος, 82100"},{"name":"NRG-Sports-Χίου-Χίος","phoneNumber":"2271024600","long":"26.13717","lat":"38.36996","address":"Ελευθερίου Βενιζέλου Χίος, 82100"},{"name":"StockHouse-Αθήνα AFTER SEASON","phoneNumber":"","long":"23.74052","lat":"37.97905","address":"Πίνδαρου Αθήνα, "},{"name":"StockHouse-Αθήνα ALL ABOUT SHOES ","phoneNumber":"","long":"23.72965","lat":"37.97625","address":"Ερμού και Ευαγγελίστριας Αθήνα, "},{"name":"StockHouse-Αθήνα ESCADA","phoneNumber":"","long":"23.73944","lat":"37.97950","address":"Τσακάλωφ Αθήνα, "},{"name":"StockHouse-Αθήνα LOUIS NICOL","phoneNumber":"Υποδηματα αξεσουαρ ","long":"23.73902","lat":"37.97824","address":"Πίνδαρου Αθήνα, "},{"name":"StockHouse-Αθήνα MOHNBUMCHEN ","phoneNumber":"Υποδήματα Αξεσουάρ","long":"23.74138","lat":"37.97850","address":"Πλατεία Δεξαμενής Αθήνα, "},{"name":"StockHouse-Αθήνα Παιδικά RAMMER OUTLET","phoneNumber":"2108313945","long":"23.72423","lat":"38.00684","address":"Τσουδερού Αθήνα, "},{"name":"StockHouse-Αθήνα ΤΣΑΚΙΡΗΣ ΜΑΛΑΣ","phoneNumber":"Υποδήματα Αξεσουάρ","long":"23.72953","lat":"37.97702","address":"Ευαγγελίστριας Αθήνα, "},{"name":"StockHouse-Αττική-Αγία Παρασκευή ΡUMA ","phoneNumber":"","long":"23.81054","lat":"38.01104","address":"Μεσογείων Αγία Παρασκευή Αττικής, "},{"name":"StockHouse-Αττική-Αιγάλεω ΡΟΛΙΝΙ","phoneNumber":"Υποδήματα Αξεσουάρ","long":"23.67815","lat":"37.99243","address":"Θηβών και Ιερά Οδός Αιγάλεω Αττικής, "},{"name":"StockHouse-Αττική-Βριλήσσια ΒΕΝΕFIT","phoneNumber":"","long":"23.82576","lat":"38.03559","address":"Γράμμου Βριλήσσια Αττικής, "},{"name":"StockHouse-Αττική-Βριλήσσια Παιδικά RAMMER ","phoneNumber":"2106892678","long":"23.82572","lat":"38.03626","address":"Λεωφόρος Πεντέλης Βριλήσσια Αττικής, "},{"name":"StockHouse-Αττική-Γαλάτσι DELFINO","phoneNumber":"2108311111","long":"23.72297","lat":"38.01192","address":"Ορλανδού Γαλάτσι Αττικής, "},{"name":"StockHouse-Αττική-Ηλιούπολη HUNTER STOCK","phoneNumber":"Υποδήματα αξεσουαρ ","long":"23.75017","lat":"37.94028","address":"Λεωφόρος Μαρίνου Αντύπα Ηλιούπολη Αττικής, "},{"name":"StockHouse-Αττική-Κηφισιά CAROUZOS ","phoneNumber":"","long":"23.81454","lat":"38.07185","address":"Κασσαβέτη Κηφισιά Αττικής, "},{"name":"StockHouse-Αττική-Κηφισιά ESCADA ","phoneNumber":"","long":"23.81221","lat":"38.07292","address":"Λεωφόρος Κηφισίας Κηφισιά Αττικής, "},{"name":"StockHouse-Αττική-Λυκόβρυση LAKIS GAVALAS ","phoneNumber":"","long":"23.78270","lat":"38.07057","address":"Ρίμινι Λυκόβρυση Αττικής, "},{"name":"StockHouse-Αττική-Μελίσσια MATOU","phoneNumber":"2108032463","long":"23.83491","lat":"38.05114","address":"Λεωφόρος Δημοκρατίας Μελίσσια Αττικής, "},{"name":"StockHouse-Αττική-Μοσχάτο PRINCE OLIVER ","phoneNumber":"","long":"23.69320","lat":"37.96096","address":"Ύδρας Μοσχάτο Αττικής, "},{"name":"StockHouse-Αττική-Νέα Ιωνία Benetton Sisley","phoneNumber":"2102717774","long":"23.75496","lat":"38.04213","address":"Αλατσατών Νέα Ιωνία Αττικής, "},{"name":"StockHouse-Αττική-Νέα Ιωνία EMPOLI OUTLET","phoneNumber":"","long":"23.75161","lat":"38.05027","address":"Ιφιγένειας Νέα Ιωνία Αττικής, "},{"name":"StockHouse-Αττική-Νέα Ιωνία RAXEVSKY","phoneNumber":"","long":"23.75452","lat":"38.04490","address":"28ης Οκτωβρίου Νέα Ιωνία Αττικής, "},{"name":"StockHouse-Αττική-Νέα Ιωνία REPLAY","phoneNumber":"","long":"23.77812","lat":"38.03084","address":"Πευκών και Νίκης Νέα Ιωνία Αττικής, "},{"name":"StockHouse-Αττική-Νέα Ιωνία ΒΕΝΕΤΤΟΝ","phoneNumber":"","long":"23.75496","lat":"38.04213","address":"Αλατσάτων Νέα Ιωνία Αττικής, "},{"name":"StockHouse-Αττική-Νέα Σμύρνη NAF NAF ","phoneNumber":"","long":"23.71046","lat":"37.93166","address":"Λεωφόρος Ελευθερίου Βενιζέλου Νέα Σμύρνη Αττικής, "},{"name":"StockHouse-Αττική-Νέα Σμύρνη REBECCA BLU ","phoneNumber":"","long":"23.71126","lat":"37.93466","address":"Λεωφόρος Ελευθερίου Βενιζέλου Νέα Σμύρνη Αττικής, "},{"name":"StockHouse-Αττική-Νέα Χαλκηδόνα ΚΕΜ ","phoneNumber":"","long":"23.73029","lat":"38.02258","address":"Αχαρνών Νέα Χαλκηδόνα Αττικής, "},{"name":"StockHouse-Αττική-Νέο Ψυχικό VARDAS","phoneNumber":"","long":"23.78768","lat":"38.00115","address":"Μεσογείων Νέο Ψυχικό Αττικής, "},{"name":"StockHouse-Αττική-Νέο Ψυχικό ΠΕΤΡΙΔΗΣ","phoneNumber":"Υποδήματα Αξεσουάρ","long":"23.79012","lat":"38.00203","address":"Μεσογείων Νέο Ψυχικό Αττικής, "},{"name":"StockHouse-Αττική-Παλαιό Φάληρο ARTISTI ITALIANI ","phoneNumber":"","long":"23.70999","lat":"37.92657","address":"Λεωφόρος Ελευθερίου Βενιζέλου Παλαιό Φάληρο Αττικής, "},{"name":"StockHouse-Αττική-Παλαιό Φάληρο DIESEL","phoneNumber":"","long":"23.70988","lat":"37.92932","address":"Αχιλλέως Παλαιό Φάληρο Αττικής, "},{"name":"StockHouse-Αττική-Παλαιό Φάληρο FILA","phoneNumber":"","long":"23.70999","lat":"37.92657","address":"Λεωφόρος Ελευθερίου Βενιζέλου Παλαιό Φάληρο Αττικής, "},{"name":"StockHouse-Αττική-Παλαιό Φάληρο LACOSTE ","phoneNumber":"","long":"23.70970","lat":"37.92813","address":"Λεωφόρος Ελευθερίου Βενιζέλου Παλαιό Φάληρο Αττικής, "},{"name":"StockHouse-Αττική-Παλαιό Φάληρο MORE MORE","phoneNumber":"","long":"23.71013","lat":"37.93102","address":"Λεωφόρος Ελευθερίου Βενιζέλου Παλαιό Φάληρο Αττικής, "},{"name":"StockHouse-Αττική-Παλαιό Φάληρο OXFORD COMPANY","phoneNumber":"","long":"23.71025","lat":"37.93109","address":"Λεωφόρος Ελευθερίου Βενιζέλου Παλαιό Φάληρο Αττικής, "},{"name":"StockHouse-Αττική-Παλαιό Φάληρο REEBOK ","phoneNumber":"","long":"23.70976","lat":"37.92779","address":"Λεωφόρος Ελευθερίου Βενιζέλου Παλαιό Φάληρο Αττικής, "},{"name":"StockHouse-Αττική-Παλαιό Φάληρο SERGIO TACCHINI","phoneNumber":"","long":"23.70993","lat":"37.92702","address":"Λεωφόρος Ελευθερίου Βενιζέλου Παλαιό Φάληρο Αττικής, "},{"name":"StockHouse-Αττική-Παλαιό Φάληρο ΑDIDAS ","phoneNumber":"","long":"23.70979","lat":"37.92956","address":"Λεωφόρος Ελευθερίου Βενιζέλου Παλαιό Φάληρο Αττικής, "},{"name":"StockHouse-Αττική-Παλαιό Φαληρό ΒEST O ","phoneNumber":"","long":"23.70992","lat":"37.92930","address":"Αχιλλέως Παλαιό Φαληρό Αττικής, "},{"name":"StockHouse-Αττική-Παλαιό Φαληρό ΝΙΚΕ ","phoneNumber":"","long":"23.71004","lat":"37.92601","address":"Λεωφόρος Ελευθερίου Βενιζέλου Παλαιό Φαληρό Αττικής, "},{"name":"StockHouse-Αττική-Περιστέρι ARTISTI ITALIANI ","phoneNumber":"","long":"23.69496","lat":"38.02381","address":"Θηβών Περιστέρι Αττικής, "},{"name":"StockHouse-Αττική-Περιστέρι GRANT","phoneNumber":"2105781283","long":"23.68709","lat":"38.01195","address":"Πελασγίας και Αγίου Πέτρου Περιστέρι Αττικής, "},{"name":"StockHouse-Αττική-Περιστέρι LAPIN","phoneNumber":"2105706100","long":"23.71428","lat":"38.01001","address":"Στυλιανού Γονατά Περιστέρι Αττικής, "},{"name":"StockHouse-Αττική-Περιστέρι MARASIL","phoneNumber":"","long":"23.70767","lat":"38.00657","address":"Λούβαρη Περιστέρι Αττικής, 12132"},{"name":"StockHouse-Αττική-Περιστέρι MOCASSINO","phoneNumber":"Υποδήματα Αξεσουάρ","long":"23.69746","lat":"38.01043","address":"Καλαμών Περιστέρι Αττικής, "},{"name":"StockHouse-Αττική-Περιστέρι TOMMY HILFINGER ","phoneNumber":"","long":"23.69360","lat":"38.01952","address":"Λεωφόρος Κωνσταντινουπόλεως Περιστέρι Αττικής, "},{"name":"StockHouse-Αττική-Περιστέρι ΜΠΟΥΡΝΑΖΟΣ","phoneNumber":"Υποδήματα Αξεσουάρ","long":"23.69561","lat":"38.00162","address":"Προκοπίου Περιστέρι Αττικής, "},{"name":"StockHouse-Αττική-Περιστέρι Παιδικά ALLOUETTE","phoneNumber":"2105718014","long":"23.69481","lat":"38.00244","address":"Φιλικών Περιστέρι Αττικής, "},{"name":"StockHouse-Αττική-Περιστέρι Παιδικά MINI RAXEVSKY","phoneNumber":"2105907928","long":"23.69317","lat":"37.99895","address":"Σφακιών Περιστέρι Αττικής, "},{"name":"StockHouse-Αττική-Περιστέρι Παιδικά ΜΟΥΓΕΡ","phoneNumber":"","long":"23.67598","lat":"38.00572","address":"Λεωφόρος Αθηνών Περιστέρι Αττικής, 12136"},{"name":"StockHouse-Αττική-Σπάτα Factory Outlet","phoneNumber":"Αεροδρομίου Ελευθερίος Βενιζέλος","long":"23.92819","lat":"37.922145","address":" Σπάτα Αττικής, "},{"name":"StockHouse-Αττική-Φάληρο FACTORY OUTLET ","phoneNumber":"","long":"23.66757","lat":"37.95238","address":"Πειραιώς Φάληρο Αττικής, "},{"name":"StockHouse-Αττική-Χαλάνδρι LUSSILE ","phoneNumber":"","long":"23.79542","lat":"38.01757","address":"Εθνικής Αντιστάσεως Χαλάνδρι Αττικής, "},{"name":"StockHouse-Αττική-Χαλάνδρι ROCCOCO","phoneNumber":"","long":"23.80128","lat":"38.02049","address":"Αγίας Παρασκευής Χαλάνδρι Αττικής, "},{"name":"StockHouse-Αττική-Χολαργός GLOU ","phoneNumber":"","long":"23.79754","lat":"38.00612","address":"Μεσογείων Χολαργός Αττικής, "},{"name":"StockHouse-Θεσσαλονίκη MEGA OUTLET","phoneNumber":"2310474775 Εκπτωτικό πολυκατάστημα με πολλές γνωστές φίρμες.","long":"22.978320","lat":"40.557890","address":"Γεωργικής Σχολής Θεσσαλονίκη, 55535"},{"name":"StockHouse-Πειραιάς DONNA DI GIO","phoneNumber":"Υποδηματα αξεσουαρ ","long":"23.65729","lat":"37.96514","address":" Πειραιάς, "},{"name":"Manetti-Αττική-Αγία Παρασκευή","phoneNumber":"2106391222","long":"23.82566","lat":"38.00874","address":"Αγίου Ιωάννου Αγία Παρασκευή, 15342"},{"name":"Manetti-Αττική-Αθήνα","phoneNumber":"Outlet-2102222273","long":"23.74308","lat":"38.02437","address":"Τραλλέων Αθήνα, 11142"},{"name":"Manetti-Αττική-Αθήνα","phoneNumber":"2103246566","long":"23.73351","lat":"37.97739","address":"Κολοκοτρώνη Αθήνα, 10562"},{"name":"Manetti-Αττική-Αθήνα-Παγκράτι","phoneNumber":"Εμπ.κέντρο Millennium-2107568331","long":"23.74936","lat":"37.96717","address":"Υμηττού Αθήνα, 11634"},{"name":"Manetti-Αττική-Αιγάλεω","phoneNumber":"River West-2105446566","long":"23.67941","lat":"37.98018","address":"Λεωφόρος Κηφισσού Αιγάλεω, 12241"},{"name":"Manetti-Αττική-Βριλήσσια","phoneNumber":"2106816169","long":"23.82431","lat":"38.03522","address":"Λεωφόρος Πεντέλης Βριλήσσια, 15235"},{"name":"Manetti-Αττική-Γαλάτσι","phoneNumber":"2102130696","long":"23.75631","lat":"38.01929","address":"Βείκου Γαλάτσι, 11147"},{"name":"Manetti-Αττική-Νέα Ιωνία","phoneNumber":"2102717704","long":"23.75821","lat":"38.04600","address":"Λεωφόρος Ηρακλείου Νέα Ιωνία, 14231"},{"name":"Manetti-Αττική-Νέα Σμύρνη","phoneNumber":"2109356644","long":"23.71123","lat":"37.94637","address":"Ομήρου Νέα Σμύρνη, 17121"},{"name":"Manetti-Αττική-Περιστέρι","phoneNumber":"2169002912","long":"23.69070","lat":"38.01324","address":"Εθνικής Αντιστάσεως Περιστέρι, 12134"},{"name":"Manetti-Αττική-Χαλάνδρι","phoneNumber":"2106857044","long":"23.80031","lat":"38.02260","address":"Πλατεία Δούρου Χαλάνδρι, 15232"},{"name":"Manetti-Έβρου-Αλεξανδρούπολη","phoneNumber":"2551081112","long":"25.87523","lat":"40.84677","address":"14ης Μαίου Αλεξανδρούπολη, 68100"},{"name":"Manetti-Έβρου-Ορεστιάδα","phoneNumber":"Outlet-2552029725","long":"26.53228","lat":"41.50228","address":"Κωνσταντινουπόλεως Ορεστιάδα, 68200"},{"name":"Manetti-Ιωαννίνων-Ιωάννινα","phoneNumber":"2651026472","long":"20.85107","lat":"39.66491","address":"Γρηγορίου Σακκά Ιωάννινα, 45332"},{"name":"Manetti-Καβάλας-Καβάλα","phoneNumber":"2510231661","long":"24.40890","lat":"40.93776","address":"Μεγάλου Αλεξάνδρου Καβάλα, 65302"},{"name":"Manetti-Κορινθίας-Κόρινθος","phoneNumber":"2741076376","long":"22.94842","lat":"37.93918","address":"Ερμού Κόρινθος, 20100"},{"name":"Manetti-Ξάνθης-Ξάνθη","phoneNumber":"2541063722","long":"24.88980","lat":"41.13770","address":"Μιχάλη Καραολή Ξάνθη, 67100"},{"name":"Intersport-Αττική-Αγία Παρασκευή","phoneNumber":"2106390768","long":"23.8205093","lat":"38.0137357","address":"Μεσογείων Αγία Παρασκευή, 15343"},{"name":"Intersport-Αττική-Άγιος Δημήτριος","phoneNumber":"Athens Metro Mall-2109765085","long":"23.74074","lat":"37.93945","address":"Λεωφόρος Βουλιαγμένης Άγιος Δημήτριος, 17343"},{"name":"Intersport-Αττική-Άγιος Ιωάννης Ρέντης","phoneNumber":"2104816070","long":"23.67038","lat":"37.95419","address":"Πειραιώς Άγιος Ιωάννης Ρέντης, 18233"},{"name":"Intersport-Αττική-Άγιος Ιωάννης Ρέντης","phoneNumber":"2105624353","long":"23.672422","lat":"37.975263","address":"Πέτρου Ράλλη Άγιος Ιωάννης Ρέντης, 18233"},{"name":"Intersport-Αττική-Αθήνα","phoneNumber":"2103303997","long":"23.73023","lat":"37.98397","address":"Θεμιστοκλέους Αθήνα, 10677"},{"name":"Intersport-Αττική-Αθήνα-Ζωγράφου","phoneNumber":"","long":"23.76263","lat":"37.97823","address":"Ούλωφ Πάλμε Αθήνα, 15771"},{"name":"Intersport-Αττική-Αιγάλεω","phoneNumber":"River West-2105699395","long":"23.67941","lat":"37.98018","address":"Λεωφόρος Κηφισού Αιγάλεω, 12241"},{"name":"Intersport-Αττική-Βάρη","phoneNumber":"2108979420","long":"23.79985","lat":"37.83380","address":"Λεωφόρος Βάρης Βάρη, 16672"},{"name":"Intersport-Αττική-Γέρακας","phoneNumber":"2106611149","long":"23.86347","lat":"38.00678","address":"Λεωφόρος Μαραθώνος Γέρακας, 15344"},{"name":"Intersport-Αττική-Γλυφάδα","phoneNumber":"2109636892","long":"23.75916","lat":"37.86901","address":"Λεωφόρος Βουλιαγμένης Γλυφάδα, 16674"},{"name":"Intersport-Αττική-Δάφνη","phoneNumber":"2109738797","long":"23.738940","lat":"37.950340","address":"Εθνικής Αντιστάσεως Δάφνη, 17237"},{"name":"Intersport-Αττική-Ίλιον","phoneNumber":"2102386560","long":"23.724158","lat":"38.042807","address":"Λεωφόρος Δημοκρατίας Ίλιον, 13122"},{"name":"Intersport-Αττική-Κολωνάκι","phoneNumber":"2103633077","long":"23.73966","lat":"37.97922","address":"Τσακάλωφ Αθήνα, 10673"},{"name":"Intersport-Αττική-Μαρούσι","phoneNumber":"The Mall Athens-2106300020","long":"23.791416","lat":"38.044744","address":"Ανδρέα Παπανδρέου Μαρούσι, 15122"},{"name":"Intersport-Αττική-Μενίδι","phoneNumber":"2102447029","long":"23.738146","lat":"38.092143","address":"Πάρνηθος+Σπάρτης Μενίδι, 13674"},{"name":"Intersport-Αττική-Νέα Ερυθραία","phoneNumber":"2106254160","long":"23.81470","lat":"38.08849","address":"Χαριλάου Τρικούπη Νέα Ερυθραία, 14671"},{"name":"Intersport-Αττική-Νέα Ιωνία","phoneNumber":"2102846969","long":"23.75828","lat":"38.04729","address":"Ιφιγένειας+Αντιγόνης Νέα Ιωνία, 14122"},{"name":"Intersport-Αττική-Νέα Σμύρνη","phoneNumber":"2109886400","long":"23.70952","lat":"37.92956","address":"Ελευθερίου Βενιζέλου Νέα Σμύρνη, 17563"},{"name":"Intersport-Αττική-Πειραιάς","phoneNumber":"2104177655","long":"23.64714","lat":"37.94734","address":"Εθνικής Αντιστάσεως Πειραιάς, 18531"},{"name":"Intersport-Αττική-Περιστέρι","phoneNumber":"2105737720","long":"23.69370","lat":"38.01251","address":"Εθνικής Αντιστάσεως Περιστέρι, 12132"},{"name":"Intersport-Αττική-Σπάτα","phoneNumber":"Εμπορικό Κέντρο Smart Park-2106630245","long":"23.91336","lat":"37.98579","address":"Ε.Πουλάκη Σπάτα, 19004"},{"name":"Intersport-Αττική-Χαλάνδρι","phoneNumber":"2106828683","long":"23.81126","lat":"38.02656","address":"Λεωφόρος Πεντέλης Χαλάνδρι, 15234"},{"name":"Intersport-Αχαΐας-Πάτρα","phoneNumber":"2610642491","long":"21.763325","lat":"38.209545","address":"Γλαύκου Πάτρα, 26332"},{"name":"Intersport-Έβρου-Αλεξανδρούπολη","phoneNumber":"2551023530","long":"25.89002","lat":"40.84845","address":"Λεωφόρος Δημοκρατίας Αλεξανδρούπολη, 68100"},{"name":"Intersport-Ευβοίας-Χαλκίδα","phoneNumber":"2221073467","long":"23.632295","lat":"38.488221","address":"Λεωφόρος Παπανδρέου Γεωργίου Χαλκίδα, 34100"},{"name":"Intersport-Ηρακλείου-Ηράκλειο","phoneNumber":"2810300350","long":"25.15826","lat":"35.33479","address":"Μαυσώλου Ηράκλειο, 71601"},{"name":"Intersport-Θεσσαλονίκης-Θεσσαλονίκη","phoneNumber":"2310226219","long":"22.94672","lat":"40.63036","address":"Τσιμισκή Θεσσαλονίκη, 54621"},{"name":"Intersport-Θεσσαλονίκης-Θεσσαλονίκη","phoneNumber":"2310911225","long":"22.98268","lat":"40.61257","address":"Γρηγορίου Λαμπράκη Θεσσαλονίκη, 54352"},{"name":"Intersport-Θεσσαλονίκης-Θεσσαλονίκη","phoneNumber":"City Gate-2310550290","long":"22.920433","lat":"40.647029","address":"Γιαννιτσών+Κωλέττη Θεσσαλονίκη, 54627"},{"name":"Intersport-Θεσσαλονίκης-Πυλαία","phoneNumber":"Mediterranean Cosmos-2310475503","long":"22.99187","lat":"40.55393","address":"11ο χλμ Ε.Ο. Θεσσαλονίκης-Μουδανίων Πυλαία, 57001"},{"name":"Intersport-Θεσσαλονίκης-Πυλαία","phoneNumber":"2310476761","long":"22.983387","lat":"40.552508","address":"11ο χλμ. Ε.Ο. Θεσσαλονίκης-Αεροδρομίου Πυλαία, 57001"},{"name":"Intersport-Θεσσαλονίκης-Σταυρούπολη","phoneNumber":"2310588442","long":"22.93862","lat":"40.67485","address":"Λαγκαδά Σταυρούπολη, 56430"},{"name":"Intersport-Κοζάνης-Κοζάνη","phoneNumber":"2461021770","long":"21.796597","lat":"40.298958","address":"11ης Οκτωβρίου+Γκέρτσου Κοζάνη, 50100"},{"name":"Intersport-Λαρίσης-Λάρισα","phoneNumber":"2410280061","long":"22.41906","lat":"39.63734","address":"Αλεξάνδρου Παναγούλη Λάρισα, 41222"},{"name":"Intersport-Λαρίσης-Λάρισα","phoneNumber":"2410922588","long":"22.47353","lat":"39.57930","address":"8ο χλμ Παλαιάς Εθνικής Οδού Λάρισας Λάρισα, 41500"},{"name":"Intersport-Μαγνησίας-Βόλος","phoneNumber":"2421032977","long":"22.94390","lat":"39.36187","address":"Δημητριάδος Βόλος, 38333"},{"name":"Intersport-Μεσσηνίας-Καλαμάτα","phoneNumber":"2721091259","long":"22.11208","lat":"37.04226","address":"Αριστομένους Καλαμάτα, 24100"},{"name":"Intersport-Ξάνθης-Ξάνθη","phoneNumber":"2541083604","long":"24.88973","lat":"41.13784","address":"Μιχαήλ Καραολή+Ελπίδος Ξάνθη, 67100"},{"name":"Intersport-Φθιώτιδας-Λαμία","phoneNumber":"2231068074","long":"22.44600","lat":"38.89280","address":"Τέρμα Θερμοπυλών Λαμία, 35100"},{"name":"Intersport-Χανίων-Χανιά","phoneNumber":"2821072929","long":"23.99646","lat":"35.50621","address":"2ο χλμ. Π.Ε.Ο. Χανίων-Κισσάμου Χανιά, 73100"},{"name":"Voi and Noi-Αργολίδας-Άργος","phoneNumber":"2751023057","long":"22.72658","lat":"37.63542","address":"Φειδώνος Άργος, "},{"name":"Voi and Noi-Αργολίδας-Ναύπλιο","phoneNumber":"2752099049","long":"22.80668","lat":"37.57191","address":"Άργους Ναύπλιο, "},{"name":"Voi and Noi-Αρκαδίας-Τρίπολη","phoneNumber":"2710242903","long":"22.37162","lat":"37.50986","address":"Ταξιαρχών Τρίπολη, 22100"},{"name":"Voi and Noi-Άρτας-Άρτα","phoneNumber":"2681072794","long":"20.98086","lat":"39.16106","address":"Νέα Περιφερειακή Οδός+Ελευθερίου Βενιζέλου Άρτα, 47100"},{"name":"Voi and Noi-Αττική-Άγιοι Ανάργυροι","phoneNumber":"2102617976","long":"23.71572","lat":"38.02896","address":"Δίστομου Άγιοι Ανάργυροι, "},{"name":"Voi and Noi-Αττική-Άγιος Δημήτριος","phoneNumber":"2109733987","long":"23.73380","lat":"37.94430","address":"Λεωφόρος Αγίου Δημητρίου Άγιος Δημήτριος, "},{"name":"Voi and Noi-Αττική-Αθήνα","phoneNumber":"2108828448","long":"23.72722","lat":"37.99530","address":"Αχαρνών Αθήνα, "},{"name":"Voi and Noi-Αττική-Αθήνα","phoneNumber":"2108668220","long":"23.73373","lat":"38.00156","address":"Πατησίων Αθήνα, "},{"name":"Voi and Noi-Αττική-Αθήνα","phoneNumber":"2169001975","long":"23.73378","lat":"38.00184","address":"Πατησίων Αθήνα, 11257"},{"name":"Voi and Noi-Αττική-Αθήνα-Κολωνός","phoneNumber":"2105147304","long":"23.71331","lat":"37.99380","address":"Λένορμαν Αθήνα, "},{"name":"Voi and Noi-Αττική-Αθήνα-Μεταξουργείο","phoneNumber":"2105235570","long":"23.72434","lat":"37.98385","address":"Ζήνωνος Αθήνα, "},{"name":"Voi and Noi-Αττική-Αθήνα-Πετράλωνα","phoneNumber":"2103420004","long":"23.70812","lat":"37.97074","address":"Ηους Πετράλωνα, "},{"name":"Voi and Noi-Αττική-Αιγάλεω","phoneNumber":"2105902520","long":"23.68492","lat":"37.99067","address":"Ιερά Οδός Αιγάλεω, "},{"name":"Voi and Noi-Αττική-Αιγάλεω","phoneNumber":"","long":"23.67215","lat":"37.98270","address":"Λεωφόρος Θηβών Αιγάλεω, 12244"},{"name":"Voi and Noi-Αττική-Αργυρούπολη","phoneNumber":"2109917737","long":"23.75416","lat":"37.90754","address":"Αργυρουπόλεως Αργυρούπολη, "},{"name":"Voi and Noi-Αττική-Αχαρναί","phoneNumber":"2102477843","long":"23.736770","lat":"38.082940","address":"Πάγκαλου  Αχαρναί, "},{"name":"Voi and Noi-Αττική-Γαλάτσι","phoneNumber":"2102928610","long":"23.75057","lat":"38.01387","address":"Λεωφόρος Γαλατσίου Γαλάτσι, "},{"name":"Voi and Noi-Αττική-Δάφνη","phoneNumber":"2109719511","long":"23.73619","lat":"37.95507","address":"Λεωφόρος Βουλιαγμένης Δάφνη, "},{"name":"Voi and Noi-Αττική-Ίλιον","phoneNumber":"2167003984","long":"23.70811","lat":"38.03368","address":"Μανάκη Ίλιον, "},{"name":"Voi and Noi-Αττική-Καλλιθέα","phoneNumber":"2109480785","long":"23.69754","lat":"37.94727","address":"Δημοσθένους Καλλιθέα, "},{"name":"Voi and Noi-Αττική-Κορυδαλλός","phoneNumber":"2105698490","long":"23.65663","lat":"37.98415","address":"Ταξιαρχών Κορυδαλλός Αττικής, "},{"name":"Voi and Noi-Αττική-Μαρούσι","phoneNumber":"2108061124","long":"23.80775","lat":"38.05608","address":"28ης Οκτωβρίου Μαρούσι, "},{"name":"Voi and Noi-Αττική-Μοσχάτο","phoneNumber":"2109408789","long":"23.67794","lat":"37.94858","address":"Μακρυγιάννη Μοσχάτο, "},{"name":"Voi and Noi-Αττική-Πειραιάς","phoneNumber":"2104630845","long":"23.63021","lat":"37.95810","address":"Χορμοβίτου Κερατσίνι, "},{"name":"Voi and Noi-Αττική-Πειραιάς","phoneNumber":"2104522250","long":"23.64419","lat":"37.93964","address":"Ηρώων Πολυτεχνείου Πειραιάς, "},{"name":"Voi and Noi-Αττική-Περιστέρι","phoneNumber":"2105787223","long":"23.69421","lat":"38.01309","address":"Σοφοκλέους Περιστέρι, 12134"},{"name":"Voi and Noi-Αττική-Πετρούπολη","phoneNumber":"2102691910","long":"23.695830","lat":"38.034190","address":"Πετρουπόλεως  Πετρούπολη, "},{"name":"Voi and Noi-Αττική-Χαλάνδρι","phoneNumber":"2106833960","long":"23.79681","lat":"38.01894","address":"Ανδρέα Παπανδρέου Χαλάνδρι, "},{"name":"Voi and Noi-Αχαΐας-Πάτρα","phoneNumber":"2610623289","long":"21.73926","lat":"38.24905","address":"Κορίνθου Πάτρα, "},{"name":"Voi and Noi-Ευβοίας-Χαλκίδα","phoneNumber":"2221062643","long":"23.59672","lat":"38.46239","address":"Αρεθούσης Χαλκίδα, "},{"name":"Voi and Noi-Ημαθίας-Βέροια","phoneNumber":"2331073615","long":"22.20279","lat":"40.52201","address":"Τρύφωνος Βέροια, 59100"},{"name":"Voi and Noi-Ηρακλείου-Ηράκλειο","phoneNumber":"2810227768","long":"25.15529","lat":"35.33669","address":"Λεωφόρος Καζαντζίδη+Αγίου Τρύφωνος Ηράκλειο, "},{"name":"Voi and Noi-Θεσσαλονίκης-Θεσσαλονίκη","phoneNumber":"2310861233","long":"22.96201","lat":"40.61528","address":"Παπαναστασίου Θεσσαλονίκη, "},{"name":"Voi and Noi-Θεσσαλονίκης-Σταυρούπολη","phoneNumber":"2310606986","long":"22.92888","lat":"40.66203","address":"Ιατρού Γωγούση Σταυρούπολη, "},{"name":"Voi and Noi-Καρδίτσας-Καρδίτσα","phoneNumber":"2441073335","long":"21.92415","lat":"39.36421","address":"Ηρώων Πολυτεχνείου+Υψηλάντου Καρδίτσα, "},{"name":"Voi and Noi-Κιλκίς-Κιλκίς","phoneNumber":"2341075315","long":"22.86786","lat":"40.98811","address":"21ης Ιουνίου Κιλκίς, "},{"name":"Voi and Noi-Κοζάνης-Κοζάνη","phoneNumber":"2461029085","long":"21.796309","lat":"40.298942","address":"Γκέρτσου Κοζάνη, "},{"name":"Voi and Noi-Κορινθίας-Κόρινθος","phoneNumber":"2741076699","long":"22.93647","lat":"37.93883","address":"Δαμασκηνού Κόρινθος, "},{"name":"Voi and Noi-Λακωνίας-Σπάρτη","phoneNumber":"2731020496","long":"22.42676","lat":"37.07389","address":"Λεωνίδου Σπάρτη, "},{"name":"Voi and Noi-Λαρίσης-Λάρισα","phoneNumber":"2410579623","long":"22.41920","lat":"39.63839","address":"Παλαμά Λάρισα, 41500"},{"name":"Voi and Noi-Πέλλας-Γιαννιτσά","phoneNumber":"2382081483","long":"22.41552","lat":"40.78073","address":"Εγνατία Γιαννιτσά, 58100"},{"name":"Voi and Noi-Ρεθύμνου-Ρέθυμνο","phoneNumber":"2831020023","long":"24.45690","lat":"35.36373","address":"Λεωφόρος Σταμαθιουδάκη Ρέθυμνο, "},{"name":"Voi and Noi-Ροδόπης-Κομοτηνή","phoneNumber":"2531085949","long":"25.40821","lat":"41.11514","address":"Δημητρίου Μπλετσά Κομοτηνή, "},{"name":"Voi and Noi-Σερρών-Σέρρες","phoneNumber":"2321023350","long":"23.55701","lat":"41.09157","address":"Μεγάλου Αλεξάνδρου Σέρρες, 62100"},{"name":"Voi and Noi-Τρικάλων-Τρίκαλα","phoneNumber":"2431079727","long":"21.76921","lat":"39.55542","address":"Τσιτσάνη Τρικάλα, 42100"},{"name":"Voi and Noi-Φθιώτιδας-Λαμία","phoneNumber":"2231067016","long":"22.43695","lat":"38.90009","address":"Καποδιστρίου Λαμία, "},{"name":"Glou-Αγρίνιο","phoneNumber":" ","long":"21.40898","lat":"38.62832","address":"Παπαστράτου Αγρίνιο,  "},{"name":"Glou-Αθήνα","phoneNumber":"2103313101","long":"23.72913","lat":"37.97631","address":"Ερμού Αθήνα,  "},{"name":"Glou-Αθήνα","phoneNumber":"2103847548","long":"23.72948","lat":"37.98438","address":"Πατησίων Αθήνα, "},{"name":"Glou-Αττική-Αμπελόκηποι","phoneNumber":"2106996527","long":"23.76766","lat":"37.99456","address":"Λεωφόρος Κηφισίας Αμπελόκηποι Αττικής,  "},{"name":"Glou-Αττική-Ελληνικό","phoneNumber":"2109946966","long":"23.74137","lat":"37.90654","address":"Τιτάνων Ελληνικό Αττικής,  "},{"name":"Glou-Αττική-Καλλιθέα","phoneNumber":"2109525521","long":"23.70400","lat":"37.95414","address":"Συνταγματάρχου Δαβάκη Καλλιθέα Αττικής,  "},{"name":"Glou-Αττική-Κηφισιά","phoneNumber":"2108017876","long":"23.81636","lat":"38.07248","address":"Κολοκοτρώνη Κηφισιά Αττικής,  "},{"name":"Glou-Αττική-Κυψέλη","phoneNumber":"2108228066","long":"23.73286","lat":"37.99770","address":"Λεωφόρος Πατησίων Κυψέλη Αττικής,  "},{"name":"Glou-Αττική-Νέα Ιωνία","phoneNumber":"2102771556","long":"23.75910","lat":"38.04658","address":"Λεωφόρος Ηρακλείου Νέα Ιωνία Αττικής,  "},{"name":"Glou-Αττική-Νέα Σμύρνη","phoneNumber":"2109313630","long":"23.71298","lat":"37.94667","address":"2ας Μαίου Νέα Σμύρνη Αττικής,  "},{"name":"Glou-Αττική-Παλαιό Φάληρο","phoneNumber":"2109852248","long":"23.70988","lat":"37.92728","address":"Λεωφόρος Ελευθερίου Βενιζέλου Παλαιό Φάληρο Αττικής,  "},{"name":"Glou-Αττική-Περιστέρι","phoneNumber":"2105758105 Glou Outlet","long":"23.70865","lat":"38.00451","address":"Λεωφόρος Κηφισού Περιστέρι Αττικής,  "},{"name":"Glou-Αττική-Χαλάνδρι","phoneNumber":"2106858198","long":"23.80024","lat":"38.02130","address":"Πλάτωνος Χαλάνδρι Αττικής,  "},{"name":"Glou-Αττική-Χολαργός","phoneNumber":"2106532060 Glou Outlet","long":"23.79754","lat":"38.00612","address":"Μεσογείων Χολαργός Αττικής,  "},{"name":"Glou-Βόλος","phoneNumber":"2421031119","long":"22.94622","lat":"39.36165","address":"Ερμού και Ελευθερίου Βενιζέλου. Βόλος,  "},{"name":"Glou-Δράμα","phoneNumber":"2521048448","long":"24.15093","lat":"41.15163","address":"Γεωργίου Παπανδρέου Δράμα,  "},{"name":"Glou-Ζάκυνθος","phoneNumber":"2695025212","long":"20.89665","lat":"37.78390","address":"Ρωμά Ζάκυνθος,  "},{"name":"Glou-Θεσσαλονίκη","phoneNumber":"2310264321","long":"22.94416","lat":"40.63163","address":"Αγίας Σοφίας Θεσσαλονίκη,  "},{"name":"Glou-Θεσσαλονίκη","phoneNumber":"2310236201","long":"22.94220","lat":"40.63318","address":"Τσιμισκή Θεσσαλονίκη,  "},{"name":"Glou-Ιωάννινα","phoneNumber":"2651036744","long":"20.85302","lat":"39.66552","address":"28ης Οκτωβρίου Ιωάννινα,  "},{"name":"Glou-Καβάλα","phoneNumber":"2510224225","long":"24.41143","lat":"40.93811","address":"Ομονοίας Καβάλα,  "},{"name":"Glou-Καλαμάτα","phoneNumber":"2721094838","long":"22.11185","lat":"37.04287","address":"Πλατεία 23ης Μαρτίου Καλαμάτα,  "},{"name":"Glou-Καρδίτσα","phoneNumber":"2441073130","long":"21.92618","lat":"39.36443","address":"Δ. Τερτίπη Καρδίτσα,  "},{"name":"Glou-Κατερίνη","phoneNumber":"2351045266","long":"22.50481","lat":"40.27154","address":"Μεγάλου Αλεξάνδρου Κατερίνη,  "},{"name":"Glou-Κέρκυρα","phoneNumber":"2661040004","long":"19.92122","lat":"39.62372","address":"Βουλγάρεως Κέρκυρα,  "},{"name":"Glou-Κόρινθος","phoneNumber":"2741085795","long":"22.93390","lat":"37.94016","address":"Εθνικής Αντιστάσεως Κόρινθος,  "},{"name":"Glou-Κρήτη-Ηράκλειο","phoneNumber":"","long":"25.12798","lat":"35.33777","address":"Λεωφόρος Καλοκαιρινού Ηράκλειο Κρήτης, "},{"name":"Glou-Κρήτη-Χανιά","phoneNumber":"2821020056","long":"24.01917","lat":"35.51445","address":"Μουσούρων Χανιά Κρήτης,  "},{"name":"Glou-Λαμία","phoneNumber":"2231066650","long":"22.43594","lat":"38.89924","address":"Λεωνίδου και Πατρόκλου Λαμία,  "},{"name":"Glou-Λάρισα","phoneNumber":"2410538473","long":"22.41686","lat":"39.63777","address":"Κούμα Λάρισα,  "},{"name":"Glou-Λειβαδιά","phoneNumber":"2261087700","long":"22.87577","lat":"38.43783","address":"Γεωργαντά Λειβαδιά, "},{"name":"Glou-Μυτιλήνη","phoneNumber":"2251043173","long":"26.55737","lat":"39.11155","address":"Ερμού Μυτιλήνη,  "},{"name":"Glou-Ξάνθη","phoneNumber":" ","long":"24.88951","lat":"41.13820","address":"Καραόλη και Τσιμισκή Ξάνθη,  "},{"name":"Glou-Πάτρα","phoneNumber":"2610623623","long":"21.73525","lat":"38.24683","address":"Μαιζώνος Πάτρα,  "},{"name":"Glou-Πτολεμαΐδα","phoneNumber":"2463023888","long":"21.67926","lat":"40.51253","address":"Μεγάλου Αλεξάνδρου Πτολεμαϊδα,  "},{"name":"Glou-Πύργος","phoneNumber":"2621037063","long":"21.42956","lat":"37.67009","address":"28ης Οκτωβρίου Πύργος,  "},{"name":"Glou-Ρόδος","phoneNumber":"2241043840","long":"28.22324","lat":"36.44820","address":"Μακαρίου Ρόδος,  "},{"name":"Glou-Σέρρες","phoneNumber":"2321026153","long":"23.54933","lat":"41.08973","address":"Μεραρχίας Σέρρες,  "},{"name":"Glou-Χαλκίδα","phoneNumber":"2221026826","long":"23.59485","lat":"38.46527","address":"Αβαντων Χαλκίδα,  "},{"name":"Glou-Χίος","phoneNumber":"2271028332","long":"26.13550","lat":"38.36974","address":"Απλωταριάς Χίος,  "},{"name":"Carouzos-Αττική-Αθήνα-Κολωνάκι","phoneNumber":"Brunello Cucinelli Boutique-2107211303","long":"23.74210","lat":"37.97757","address":"Πατριάρχου Ιωακείμ Αθήνα, 10673"},{"name":"Carouzos-Αττική-Αθήνα-Κολωνάκι","phoneNumber":"2103627123","long":"23.73944","lat":"37.97697","address":"Κανάρη Αθήνα, 10674"},{"name":"Carouzos-Αττική-Βουλιαγμένη","phoneNumber":"Astir palace-2108901573","long":"23.77508","lat":"37.80784","address":"Απόλλωνος Βουλιαγμένη, 16671"},{"name":"Carouzos-Αττική-Γλυφάδα","phoneNumber":"2108941474","long":"23.75181","lat":"37.86256","address":"Λεωφόρος Δημάρχου Άγγελου Μεταξά Γλυφάδα Αττικής,  "},{"name":"Carouzos-Αττική-Γλυφάδα","phoneNumber":"2108946202 ","long":"23.75451","lat":"37.85985","address":"Δημάρχου Άγγελου Μεταξά Γλυφάδα, 16674"},{"name":"Carouzos-Αττική-Κηφισιά","phoneNumber":"2108010691 ","long":"23.81323","lat":"38.07114","address":"Κυριαζή Κηφισιά, 14562"},{"name":"Carouzos-Αττική-Νέα Χαλκηδόνα","phoneNumber":"2102502500","long":"23.72593","lat":"38.02400","address":"Κωστή Παλαμά Νέα Χαλκηδόνα Αττικής,  "},{"name":"Carouzos-Θεσσαλονίκης-Θεσσαλονίκη","phoneNumber":"2310230181","long":"22.94258","lat":"40.63294","address":"Τσιμισκή Θεσσαλονίκη, 54623"},{"name":"Carouzos-Μεσσηνίας-Γαργαλιάνοι","phoneNumber":"Navarino Dunes-2723091140 ","long":"21.652778","lat":"36.996389","address":" Γαργαλιάνοι, 24001"},{"name":"Zara-Αττική-Αγία Παρασκευή","phoneNumber":"2106001888-Παιδικά","long":"23.82294","lat":"38.01152","address":"Αγίου Ιωάννου Αγία Παρασκευή, 15342"},{"name":"Zara-Αττική-Άγιος Δημήτριος","phoneNumber":"Athens Metro Mall-2109753006-Γυναικεία-Ανδρικά-Παιδικά","long":"23.74074","lat":"37.93945","address":"Λεωφόρος Βουλιαγμένης Άγιος Δημήτριος, 17343"},{"name":"Zara-Αττική-Αθήνα","phoneNumber":"2103252579-Γυναικεία-Ανδρικά-Παιδικά","long":"23.73264","lat":"37.97587","address":"Ερμού Αθήνα, 10536"},{"name":"Zara-Αττική-Αθήνα","phoneNumber":"2103249930-Γυναικεία-Ανδρικά-Παιδικά","long":"23.72928","lat":"37.97630","address":"Ερμού Αθήνα, 10563"},{"name":"Zara-Αττική-Αθήνα","phoneNumber":"2103218141-Γυναικεία-Ανδρικά-Παιδικά","long":"23.72880","lat":"37.98335","address":"Σταδίου Αθήνα, 10551"},{"name":"Zara-Αττική-Αθήνα","phoneNumber":"2103223210-Γυναικεία-Ανδρικά-Παιδικά","long":"23.73189","lat":"37.97966","address":"Σταδίου Αθήνα, 10564"},{"name":"Zara-Αττική-Αθήνα-Κολωνάκι","phoneNumber":"2103636340-Γυναικεία-Ανδρικά-Παιδικά","long":"23.73966","lat":"37.97849","address":"Σκουφά Αθήνα, 10673"},{"name":"Zara-Αττική-Αθήνα-Κυψέλη","phoneNumber":"2108645577-Παιδικά","long":"23.73313","lat":"37.99950","address":"Πατησίων Αθήνα, 11257"},{"name":"Zara-Αττική-Αθήνα-Κυψέλη","phoneNumber":"2108251786-Γυναικεία-Ανδρικά ","long":"23.73322","lat":"37.99921","address":"Πατησίων Αθήνα, 11257"},{"name":"Zara-Αττική-Γλυφάδα","phoneNumber":"2108945600-Γυναικεία","long":"23.74894","lat":"37.86294","address":"Α. Λαζαράκη Γλυφάδα, 16675"},{"name":"Zara-Αττική-Γλυφάδα","phoneNumber":"2108945136-Γυναικεία-Ανδρικά-Παιδικά","long":"23.75420","lat":"37.85997","address":"Λεωφόρος Δημάρχου Άγγελου Μεταξά Γλυφάδα, 16674"},{"name":"Zara-Αττική-Καλλιθέα","phoneNumber":"2109578590-Γυναικεία-Ανδρικά-Παιδικά","long":"23.70468","lat":"37.95770","address":"Λεωφόρος Ελευθερίου Βενιζέλου Καλλιθέα, 17672"},{"name":"Zara-Αττική-Κηφισιά","phoneNumber":"2108011222-Γυναικεία-Παιδικά","long":"23.81350","lat":"38.07202","address":"Κυριαζή Κηφισιά, 14561"},{"name":"Zara-Αττική-Μαρούσι","phoneNumber":"The Mall Athens-2106300070-Γυναικεία-Ανδρικά-Παιδικά","long":"23.79151","lat":"38.04512","address":"Ανδρέα Παπανδρέου Μαρούσι, 15122"},{"name":"Zara-Αττική-Μαρούσι","phoneNumber":"Golden Hall-2106836740-Γυναικεία-Ανδρικά-Παιδικά","long":"23.79433","lat":"38.03289","address":"Λεωφόρος Κηφισίας Μαρούσι, 15123"},{"name":"Zara-Αττική-Νέα Ιωνία","phoneNumber":"2102725090-Παιδικά","long":"23.75760","lat":"38.04551","address":"Λεωφόρος Ηρακλείου Νέα Ιωνία, 14231"},{"name":"Zara-Αττική-Νέα Ιωνία","phoneNumber":"2102724322-Γυναικεία-Ανδρικά","long":"23.75895","lat":"38.04652","address":"Λεωφόρος Ηρακλείου Νέα Ιωνία, 14231"},{"name":"Zara-Αττική-Νέα Σμύρνη","phoneNumber":"2109347906 Γυναικεία-Ανδρικά-Παιδικά","long":"23.71124","lat":"37.94674","address":"Κωνσταντίνου Παλαιολόγου Νέα Σμύρνη, 15234"},{"name":"Zara-Αττική-Πειραιάς","phoneNumber":"2104120367-Γυναικεία-Ανδρικά-Παιδικά","long":"23.64769","lat":"37.94123","address":"Σωτήρος Δίος Πειραιάς, 18535"},{"name":"Zara-Αττική-Πειραιάς","phoneNumber":"2104174901-Γυναικεία-Ανδρικά-Παιδικά","long":"23.64766","lat":"37.94374","address":"Λεωφόρος Ηρώων Πολυτεχνείου Πειραιάς, 18531"},{"name":"Zara-Αττική-Χαλάνδρι","phoneNumber":"2106828217-Γυναικεία-Παιδικά","long":"23.79919","lat":"38.02176","address":"Ανδρέα Παπανδρέου Χαλάνδρι, 15234"},{"name":"Zara-Αχαΐας-Πάτρα","phoneNumber":"2610276092 Γυναικεία-Ανδρικά-Παιδικά","long":"21.73625","lat":"38.24763","address":"Μαιζώνος Πάτρα, 26221"},{"name":"Zara-Βοιωτίας-Λιβαδειά","phoneNumber":"2261020123-Παιδικά","long":"22.87656","lat":"38.43738","address":"Μπουφίδου Λιβαδειά, 32100"},{"name":"Zara-Δράμας-Δράμα","phoneNumber":"2521030850-Παιδικά","long":"24.14908","lat":"41.15061","address":"Ανδρέα Παπανδρέου Δράμα, 66100"},{"name":"Zara-Δωδεκανήσου-Ρόδος","phoneNumber":"2241078770-Γυναικεία-Ανδρικά-Παιδικά","long":"28.22186","lat":"36.44903","address":"Λαμπράκη Ρόδος, 85100"},{"name":"Zara-Έβρου-Αλεξανδρούπολη","phoneNumber":"2551084770-Γυναικεία-Ανδρικά-Παιδικά","long":"25.87789","lat":"40.84626","address":"Λεωφόρος Δημοκρατίας Αλεξανδρούπολη, 68100"},{"name":"Zara-Ευβοίας-Χαλκίδα","phoneNumber":"2221075140-Γυναικεία-Ανδρικά-Παιδικά","long":"23.59637","lat":"38.46629","address":"Αβάντων Χαλκίδα, 34100"},{"name":"Zara-Ημαθίας-Βέροια","phoneNumber":"2331077542-Παιδικά","long":"22.20462","lat":"40.52466","address":"Ελευθερίου Βενιζέλου Βέροια, 59100"},{"name":"Zara-Ηρακλείου-Ηράκλειο","phoneNumber":"2810220089-Γυναικεία-Ανδρικά-Παιδικά","long":"25.13484","lat":"35.33858","address":"Δαιδάλου+Βυζαντίου Ηράκλειο, 71202"},{"name":"Zara-Θεσσαλονίκης-Θεσσαλονίκη","phoneNumber":"2310227033-Γυναικεία-Ανδρικά-Παιδικά","long":"22.94334","lat":"40.63250","address":"Τσιμισκή Θεσσαλονίκη, 54623"},{"name":"Zara-Θεσσαλονίκης-Θεσσαλονίκη","phoneNumber":"2310241788-Γυναικεία-Παιδικά","long":"22.94285","lat":"40.63278","address":"Τσιμισκή Θεσσαλονίκη, 54623"},{"name":"Zara-Θεσσαλονίκης-Θεσσαλονίκη","phoneNumber":"City Gate-2310533799-Παιδικά","long":"22.92012","lat":"40.64713","address":"Γιαννιτσών+Κωλλέτη Θεσσαλονίκη, 54627"},{"name":"Zara-Θεσσαλονίκης-Πυλαία","phoneNumber":"Mediterranean Cosmos-2310487950--Γυναικεία-Ανδρικά-Παιδικά","long":"22.99187","lat":"40.55393","address":"11ο χλμ Θεσσαλονίκης - Ν. Μουδανιών Πυλαία, 57001"},{"name":"Zara-Ιωαννίνων-Ιωάννινα","phoneNumber":"2651039306-Γυναικεία-Παιδικά","long":"20.84994","lat":"39.66534","address":"Χαριλάου Τρικούπη Ιωάννινα, 45332"},{"name":"Zara-Ιωαννίνων-Ιωάννινα","phoneNumber":"2651024610-Ανδρικά","long":"20.85112","lat":"39.66637","address":"Χαριλάου Τρικούπη Ιωάννινα, 45333"},{"name":"Zara-Καβάλας-Καβάλα","phoneNumber":"2510830890-Γυναικεία-Ανδρικά-Παιδικά","long":"24.40931","lat":"40.93747","address":"Αβέρωφ Καβάλα, 65302"},{"name":"Zara-Καρδίτσας-Καρδίτσα","phoneNumber":"2441076802-Παιδικά","long":"21.92231","lat":"39.36452","address":"Υψηλάντη Καρδίτσα, 43100"},{"name":"Zara-Λακωνίας-Σπάρτη","phoneNumber":"2731089170-Παιδικά","long":"22.42918","lat":"37.07321","address":"Ευαγγελίστριας Σπάρτη, 23100"},{"name":"Zara-Λαρίσης-Λάρισα","phoneNumber":"2410253146-Γυναικεία-Ανδρικά-Παιδικά","long":"22.41747","lat":"39.63827","address":"Ρούσβελτ Λάρισα, 41222"},{"name":"Zara-Μαγνησίας-Βόλος","phoneNumber":"2421021377-Γυναικεία-Ανδρικά-Παιδικά","long":"22.94657","lat":"39.36209","address":"Ιωλκού+Σωκράτους Βόλος, 38221"},{"name":"Zara-Μεσσηνίας-Καλαμάτα","phoneNumber":"2721025450-Γυναικεία-Παιδικά","long":"22.11156","lat":"37.03976","address":"Αριστομένους Καλαμάτα, 24100"},{"name":"Zara-Ξάνθης-Ξάνθη","phoneNumber":"2541023720-Παιδικά","long":"24.88826","lat":"41.13949","address":"Καραολή+Δαγκλή Ξάνθη, 67101"},{"name":"Zara-Ροδόπης-Κομοτηνή","phoneNumber":"Kosmopolis-Γυναικεία-Ανδρικά-Παιδικά-2531032902","long":"25.39376","lat":"41.12535","address":"Εθνικής Αντιστάσεως+Γεωργίου Παπανδρέου Κομοτηνή, 69100"},{"name":"Zara-Σερρών-Σέρρες","phoneNumber":"2321099823-Παιδικά","long":"23.54933","lat":"41.08971","address":"Μεραρχίας Σέρρες, 62100"},{"name":"Zara-Τρικάλων-Τρίκαλα","phoneNumber":"2431022590-Παιδικά","long":"21.76495","lat":"39.54918","address":"Ασκληπιού Τρίκαλα, 42100"},{"name":"Zara-Φθιώτιδας-Λαμία","phoneNumber":"2231966042-Γυναικεία-Ανδρικά-Παιδικά","long":"22.43547","lat":"38.89992","address":"Καποδιστρίου Λαμία, 35100"},{"name":"Zara-Χανίων-Χανιά","phoneNumber":"2821083092-Γυναικεία-Ανδρικά-Παιδικά","long":"24.01543","lat":"35.51328","address":"Σκαλίδη Χανιά, 73163"},{"name":"Καλογήρου-Αττική-Αθήνα","phoneNumber":"2103356405","long":"23.73284","lat":"37.99770","address":"Πατησίων Αθήνα, "},{"name":"Καλογήρου-Αττική-Αθήνα-Κολωνάκι","phoneNumber":"2103356401","long":"23.74141","lat":"37.97743","address":"Πατριάρχου Ιωακείμ Αθήνα,  "},{"name":"Καλογήρου-Αττική-Αθήνα-Πλάκα","phoneNumber":"2103356410","long":"23.72830","lat":"37.97539","address":"Πανδρόσου Αθήνα, "},{"name":"Καλογήρου-Αττική-Αθήνα-Σύνταγμα","phoneNumber":"2103356402","long":"23.73351","lat":"37.97739","address":"Κολοκοτρώνη Αθήνα,  "},{"name":"Καλογήρου-Αττική-Γλυφάδα","phoneNumber":"2103356407","long":"23.75189","lat":"37.86243","address":"Άγγελου Μεταξά Γλυφάδα, "},{"name":"Καλογήρου-Αττική-Κηφισιά","phoneNumber":"2103356404","long":"23.81297","lat":"38.07320","address":"Παναγίτσας Κηφισιά,  "},{"name":"Καλογήρου-Αττική-Μαρούσι","phoneNumber":"Golden Hall-2103356478","long":"23.79433","lat":"38.03289","address":"Λεωφόρος Κηφισίας Μαρούσι, "},{"name":"Καλογήρου-Αττική-Πειραιάς","phoneNumber":"2103356409","long":"23.64532","lat":"37.94111","address":"Ηρώων Πολυτεχνείου Πειραιάς, "},{"name":"Καλογήρου-Αττική-Περιστέρι","phoneNumber":"2103356406","long":"23.70476","lat":"38.00699","address":"Αρκαδίας Περιστέρι, "},{"name":"Καλογήρου-Αττική-Σπάτα","phoneNumber":"McArthur Glen Designer Outlet-2103356431","long":"23.91101","lat":"37.98687","address":"Οικοδομικό τετράγωνο E71 Σπάτα, "},{"name":"Καλογήρου-Θεσσαλονίκης-Θεσσαλονίκη","phoneNumber":"2310376403","long":"22.94450","lat":"40.63090","address":"Μητροπόλεως Θεσσαλονίκη,  "},{"name":"Sagiakos-Αττική-Αθήνα","phoneNumber":"Attika the department store-2111802500","long":"23.73501","lat":"37.97760","address":"Λεωφόρος Ελευθερίου Βενιζέλου Αθήνα, 10564"},{"name":"Sagiakos-Αττική-Αιγάλεω","phoneNumber":"2105900755","long":"23.68017","lat":"37.99209","address":"Πανόρμου Αιγάλεω, 12242"},{"name":"Sagiakos-Αττική-Γαλάτσι","phoneNumber":"2102976254","long":"23.75381","lat":"38.01454","address":"Βεΐκου Γαλάτσι, 11146"},{"name":"Sagiakos-Αττική-Γλυφάδα","phoneNumber":"2108946346","long":"23.75258","lat":"37.86225","address":"Δημάρχου Άγγελου Μεταξά Γλυφάδα, 16674"},{"name":"Sagiakos-Αττική-Πειραιάς","phoneNumber":"2104176880","long":"23.64873","lat":"37.94212","address":"Λεωφόρος Βασιλέως Γεωργίου Α' Πειραιάς, 18532"},{"name":"Sagiakos-Αττική-Περιστέρι","phoneNumber":"2105778911","long":"23.69748","lat":"38.01051","address":"Παναγή Τσαλδάρη Περιστέρι, 12134"},{"name":"Sagiakos-Αττική-Περιστέρι","phoneNumber":"Outlet-2105762928","long":"23.70281","lat":"38.00541","address":"Αρκαδίου Περιστέρι, 12132"},{"name":"Sagiakos-Αττική-Περιστέρι","phoneNumber":"2105736555","long":"23.69966","lat":"38.01115","address":"Χρυσοστόμου Σμύρνης Περιστέρι, 12132"},{"name":"Benetton-Αιτωλοακαρνανίας-Αγρίνιο","phoneNumber":"Ενήλικες-2641047750","long":"21.40912","lat":"38.62745","address":"Αδερφών Παπαστράτου Αγρίνιο, 30100"},{"name":"Benetton-Αιτωλοακαρνανίας-Αγρίνιο","phoneNumber":"Παιδικά-2641044811","long":"21.41043","lat":"38.62560","address":"Κύπρου Αγρίνιο, 30100"},{"name":"Benetton-Αιτωλοακαρνανίας-Μεσολόγγι","phoneNumber":"Παιδικά-2631056902","long":"21.43058","lat":"38.36990","address":"Ελεύθερων Πολιορκημένων Μεσολόγγι, 30200"},{"name":"Benetton-Αιτωλοακαρνανίας-Ναύπακτος","phoneNumber":"Ενήλικες-Παιδικά-Εσώρουχα-2634021181","long":"21.82900","lat":"38.39342","address":"Τζαβέλα Ναύπακτος, 30300"},{"name":"Benetton-Αργολίδας-Άργος","phoneNumber":"Ενήλικες-Παιδικά-2751061190 ","long":"22.72868","lat":"37.63535","address":"Κορίνθου Άργος,  "},{"name":"Benetton-Αργολίδας-Άργος","phoneNumber":"Εσώρουχα-6945472060","long":"22.72870","lat":"37.63585","address":"Κορίνθου Άργος, 21200"},{"name":"Benetton-Αργολίδας-Ναύπλιο","phoneNumber":"Ενήλικες-Παιδικά-2752096452","long":"22.80676","lat":"37.56976","address":"Άργους Ναύπλιο,  "},{"name":"Benetton-Αρκαδίας-Τρίπολη","phoneNumber":"Παιδικά-2710224886","long":"22.37368","lat":"37.51277","address":"Εθνικής Αντιστάσεως Τρίπολη, 22100"},{"name":"Benetton-Αρκαδίας-Τρίπολη","phoneNumber":"Ενήλικες-Εσώρουχα-2710234197","long":"22.37254","lat":"37.51064","address":"Εθνικής Αντιστάσεως Τρίπολη, 22100"},{"name":"Benetton-Άρτας-Άρτα","phoneNumber":"Παιδικά-2681023023","long":"20.98469","lat":"39.16090","address":"Νικολάου Σκουφά Άρτα, 47100"},{"name":"Benetton-Αττική-Αγία Παρασκευή","phoneNumber":"Ενήλικες-Παιδικά-Εσώρουχα-2106391732","long":"23.82305","lat":"38.01140","address":"Αγίου Ιωάννου Αγία Παρασκευή,  "},{"name":"Benetton-Αττική-Άγιος Δημήτριος","phoneNumber":"Athens Metro Mall-Ενήλικες-Παιδικά-Εσώρουχα-2109708900","long":"23.74074","lat":"37.93945","address":"Λεωφόρος Βουλιαγμένης Άγιος Δημήτριος, 17343"},{"name":"Benetton-Αττική-Αθήνα","phoneNumber":"Ενήλικες-Εσώρουχα-2103612451","long":"23.73974","lat":"37.97838","address":"Σκουφά Αθήνα,  "},{"name":"Benetton-Αττική-Αθήνα","phoneNumber":"Hondos Center-Εσώρουχα-2105282800","long":"23.72800","lat":"37.98458","address":"Πλατεία Ομονοίας Αθήνα, 10431"},{"name":"Benetton-Αττική-Αθήνα","phoneNumber":"Attica-Ενήλικες-Παιδικά-Εσώρουχα-2111802633","long":"23.73524","lat":"37.97765","address":"Ελευθερίου Βενιζέλου Αθήνα,  "},{"name":"Benetton-Αττική-Αθήνα","phoneNumber":"Ενήλικες-Παιδικά-Εσώρουχα-2103245991","long":"23.72887","lat":"37.97635","address":"Ερμού Αθήνα,  "},{"name":"Benetton-Αττική-Αθήνα","phoneNumber":"La Meduse-Εσώρουχα-2103234339","long":"23.73009","lat":"37.97619","address":"Ερμού Αθήνα, 10563"},{"name":"Benetton-Αττική-Αθήνα","phoneNumber":"Hondos Center-Εσώρουχα","long":"23.73858","lat":"37.97651","address":"Μέρλιν Αθήνα, 10671"},{"name":"Benetton-Αττική-Αθήνα","phoneNumber":"Notos Galleries-Ενήλικες-Παιδικά-Εσώρουχα-2103245811","long":"23.72904","lat":"37.98264","address":"Αιόλου Αθήνα, 10551"},{"name":"Benetton-Αττική-Αθήνα","phoneNumber":"Ενήλικες-Παιδικά-Εσώρουχα-2108648661","long":"23.73306","lat":"37.99922","address":"Πατησίων Αθήνα,  "},{"name":"Benetton-Αττική-Αθήνα","phoneNumber":"Παιδικά-2103614141","long":"23.73934","lat":"37.97715","address":"Σόλωνος Αθήνα, 10673"},{"name":"Benetton-Αττική-Αθήνα","phoneNumber":"Παιδικά-2103619298","long":"23.73997","lat":"37.97805","address":"Σκουφά Αθήνα, 10673"},{"name":"Benetton-Αττική-Αθήνα","phoneNumber":"Παιδικά-2107794565","long":"23.76460","lat":"37.98897","address":"Αρκαδίας Αθήνα, 11526"},{"name":"Benetton-Αττική-Αθήνα-Αμπελόκηποι","phoneNumber":"Ενήλικες-Εσώρουχα-2107799601","long":"23.76430","lat":"37.98922","address":"Λεωφόρος Κηφισίας Αθήνα, 11526"},{"name":"Benetton-Αττική-Αθήνα-Παγκράτι","phoneNumber":"Ενήλικες-Παιδιά-2107521194","long":"23.74953","lat":"37.96733","address":"Υμηττού Αθήνα, 11634"},{"name":"Benetton-Αττική-Αχαρναί","phoneNumber":"Ενήλικες-Παιδικά-Εσώρουχα-2102407024","long":"23.73740","lat":"38.08451","address":"Πάρνηθος Αχαρναί, 13671"},{"name":"Benetton-Αττική-Βάρη","phoneNumber":"Κατάστημα ΖουΖου-Παιδικά-2109656465","long":"23.82376","lat":"37.84610","address":"2ο χλμ. Επαρχιακής οδού Βάρης-Κορωπίου Βάρη, 19400"},{"name":"Benetton-Αττική-Γαλάτσι","phoneNumber":"Ενήλικες-Παιδικά-Εσώρουχα-2102139059","long":"23.75547","lat":"38.01909","address":"Τραλλεών Γαλάτσι, 11146"},{"name":"Benetton-Αττική-Γλυφάδα","phoneNumber":"Ενήλικες-Παιδικά-2108982514","long":"23.75041","lat":"37.86196","address":"Λαζαράκη Γλυφάδα,  "},{"name":"Benetton-Αττική-Γλυφάδα","phoneNumber":"Εσώρουχα-2108981842","long":"23.75041","lat":"37.86208","address":"Λαζαράκη Γλυφάδα, 16674"},{"name":"Benetton-Αττική-Ελευσίνα","phoneNumber":"Ενήλικες-Παιδικά-Εσώρουχα-2105542660","long":"23.54000","lat":"38.04414","address":"Δήμητρος Ελευσίνα, 19200"},{"name":"Benetton-Αττική-Ζωγράφος","phoneNumber":"Ενήλικες-Παιδικά-2107759429","long":"23.76789","lat":"37.97854","address":"Λεωφόρος Στρατάρχου Αλεξάνδρου Παπάγου Ζωγράφος Αττικής, "},{"name":"Benetton-Αττική-Ηλιούπολη","phoneNumber":"Εσώρουχα-2109938909","long":"23.75634","lat":"37.93502","address":"Λεωφόρος Ειρήνης Ηλιούπολη, 16345"},{"name":"Benetton-Αττική-Ίλιον","phoneNumber":"Ενήλικες-Παιδικά-Εσώρουχα-2102614441","long":"23.70597","lat":"38.03260","address":"Φιλοκτήτου Ίλιον, 13122"},{"name":"Benetton-Αττική-Καλλιθέα","phoneNumber":"Παιδικά-2109514203","long":"23.70127","lat":"37.95551","address":"Ελευθερίου Βενιζέλου Καλλιθέα, 17675"},{"name":"Benetton-Αττική-Κερατσίνι","phoneNumber":"Εσώρουχα-2104313846","long":"23.62257","lat":"37.96737","address":"Παναγή Τσαλδάρη Κερατσίνι, 18757"},{"name":"Benetton-Αττική-Κηφισιά","phoneNumber":"Λητώ-Παιδικά- 2108003184","long":"23.80101","lat":"38.09828","address":"17ο χλμ Ε.Ο. Αθηνών-Λαμίας Κηφισιά, 14564"},{"name":"Benetton-Αττική-Κηφισιά","phoneNumber":"Κατάστημα ΖουΖου-Παιδικά-2106252170","long":"23.80619","lat":"38.10208","address":"Αηδονών Κηφισιά, 14565"},{"name":"Benetton-Αττική-Κηφισιά","phoneNumber":"Ενήλικες-Παιδικά-Εσώρουχα-2106233094","long":"23.81285","lat":"38.07324","address":"Παναγίτσας Κηφισιά, 14562"},{"name":"Benetton-Αττική-Κορυδάλλος","phoneNumber":"Ενήλικες-Παιδικά-Εσώρουχα-2104945548","long":"23.65172","lat":"37.97881","address":"Παύλου Μελά Κορυδαλλός, 18120"},{"name":"Benetton-Αττική-Λούτσα","phoneNumber":"Ενήλικες-Παιδικά-Εσώρουχα-2294085267","long":"24.00826","lat":"37.97300","address":"Λεωφόρος Αρτέμιδος Λούτσα, 19016"},{"name":"Benetton-Αττική-Μαρούσι","phoneNumber":"The Mall Athens-Ενήλικες-Παιδικά-Εσώρουχα-2106108086","long":"23.79151","lat":"38.04512","address":"Ανδρέα Παπανδρέου Μαρούσι, 15125"},{"name":"Benetton-Αττική-Μαρούσι","phoneNumber":"Golden Hall-Ενήλικες-Παιδικά-2106896485","long":"23.79433","lat":"38.03289","address":"Λεωφόρος Κηφισίας Μαρούσι, 15123"},{"name":"Benetton-Αττική-Μαρούσι","phoneNumber":"Ενήλικες-Παιδικά-Εσώρουχα-2106127465","long":"23.80690","lat":"38.05542","address":"Ερμού Μαρούσι,  "},{"name":"Benetton-Αττική-Μαρούσι","phoneNumber":"Avenue Mall-Ενήλικες-Παιδικά-2106178690","long":"23.79616","lat":"38.03480","address":"Λεωφόρος Κηφισίας Μαρούσι, 15123"},{"name":"Benetton-Αττική-Μέγαρα","phoneNumber":"Ενήλικες-Παιδικά-Εσώρουχα-2296024890","long":"23.33839","lat":"37.99245","address":"Κορυτσάς Μέγαρα, 19100"},{"name":"Benetton-Αττική-Νέα Ιωνία","phoneNumber":"Κατάστημα ΖουΖου-Παιδικά-2102753075","long":"23.75004","lat":"38.03585","address":"Γεωργίου Αβέρωφ Νέα Ιωνία, 14232"},{"name":"Benetton-Αττική-Νέα Ιωνία","phoneNumber":"Ενήλικες-Παιδικά-Εσώρουχα-2102717041","long":"23.75716","lat":"38.04524","address":"Λεωφόρος Ηρακλείου Νέα Ιωνία,  "},{"name":"Benetton-Αττική-Νέα Μάκρη","phoneNumber":"Ενήλικες-Παιδικά-Εσώρουχα-2294069361","long":"23.97626","lat":"38.08737","address":"Λεωφόρος Μαραθώνος Νέα Μάκρη, "},{"name":"Benetton-Αττική-Νέα Σμύρνη","phoneNumber":"Ενήλικες-Παιδικά-Εσώρουχα-2109336753","long":"23.71137","lat":"37.94686","address":"2ας Μαίου Νέα Σμύρνη,  "},{"name":"Benetton-Αττική-Νέο Ψυχικό","phoneNumber":"Παιδικά-2106741351","long":"23.77633","lat":"38.00396","address":"Ψυχάρη Νέο Ψυχικό, 15451"},{"name":"Benetton-Αττική-Νέο Ψυχικό","phoneNumber":"Ενήλικες-Εσώρουχα-2106745125","long":"23.77700","lat":"38.00442","address":"Στρατήγη Γ. Νέο Ψυχικό, 15451"},{"name":"Benetton-Αττική-Παιανία","phoneNumber":"Παιδικά-2106640365","long":"23.85605","lat":"37.96018","address":"Λεωφόρος Λαυρίου Παιανία, 19002"},{"name":"Benetton-Αττική-Παλαιό Φάληρο","phoneNumber":"Ενήλικες-Παιδικά-Εσώρουχα-2109834805","long":"23.69378","lat":"37.92837","address":"Αγίου Αλεξάνδρου Παλαιό Φάληρο, 17561"},{"name":"Benetton-Αττική-Παλλήνη","phoneNumber":"Εσώρουχα-2106034635","long":"23.88161","lat":"38.00378","address":"Λεωφόρος Μαραθώνος Παλλήνη, 15351"},{"name":"Benetton-Αττική-Πειραιάς","phoneNumber":"Notos Galleries-Ενήλικες-Παιδικά-Εσώρουχα-2104119811","long":"23.64780","lat":"37.94390","address":"Ηρώων Πολυτεχνείου Πειραιάς, 18535"},{"name":"Benetton-Αττική-Πειραιάς","phoneNumber":"Παιδικά-2104128255","long":"23.65162","lat":"37.94051","address":"Λεωφόρος Βασιλέως Γεωργίου Α Πειραιάς,  "},{"name":"Benetton-Αττική-Πειραιάς","phoneNumber":"Εσώρουχα-2104121320","long":"23.64657","lat":"37.94113","address":"Καραΐσκου Πειραιάς, 18535"},{"name":"Benetton-Αττική-Πειραιάς","phoneNumber":"ΖουΖου-Παιδικά-2104223227","long":"23.64342","lat":"37.94944","address":"Αγίου Διονυσίου Πειραιάς, 18545"},{"name":"Benetton-Αττική-Πειραιάς","phoneNumber":"Λητώ-Παιδικά-2104176260","long":"23.67992","lat":"37.95672","address":"Πειραιώς Πειραιάς, 18346"},{"name":"Benetton-Αττική-Πειραιάς","phoneNumber":"Ενήλικες-Παιδικά-2104112922","long":"23.64464","lat":"37.94286","address":"Σωτήρος Δίος Πειραιάς, 18535"},{"name":"Benetton-Αττική-Περιστέρι","phoneNumber":"Ενήλικες-Παιδικά-Εσώρουχα-2105717555","long":"23.70881","lat":"38.01141","address":"Λεωφόρος Κωνσταντινουπόλεως Περιστέρι, "},{"name":"Benetton-Αττική-Περιστέρι","phoneNumber":"Ενήλικες-Παιδικά-Εσώρουχα-2105773981","long":"23.69067","lat":"38.01327","address":"Εθνικής Αντιστάσεως Περιστέρι, 12134"},{"name":"Benetton-Αττική-Περιστέρι","phoneNumber":"Hondos Center-Εσώρουχα-2105704955","long":"23.68970","lat":"38.01185","address":"Πελοπίδα Περιστέρι, 12134"},{"name":"Benetton-Αττική-Περιστέρι","phoneNumber":"Λητώ-Παιδικά-2105738697","long":"23.70847","lat":"38.00437","address":"Λεωφόρος Κηφισού Περιστέρι, 12134"},{"name":"Benetton-Αττική-Περιστέρι","phoneNumber":"Ενήλικες-Παιδικά-Εσώρουχα-2105759962","long":"23.69712","lat":"38.01115","address":"Λεωφόρος Παναγή Τσαλδάρη Περιστέρι,  "},{"name":"Benetton-Αττική-Ταύρος","phoneNumber":"Athens Heart-Ενήλικες-Παιδικά-2106026070","long":"23.70174","lat":"37.96988","address":"Πειραιώς Ταύρος, 17778"},{"name":"Benetton-Αττική-Χαλάνδρι","phoneNumber":"Ενήλικες-Παιδικά-Εσώρουχα-2106800776","long":"23.79907","lat":"38.02212","address":"Κατσουλιέρη Χαλάνδρι,  "},{"name":"Benetton-Αττική-Χαλάνδρι","phoneNumber":"Ενήλικες-Παιδικά-Εσώρουχα-2106724751","long":"23.78959","lat":"38.02191","address":"Λεωφόρος Κηφισίας Χαλάνδρι, 15232"},{"name":"Benetton-Αττική-Χολαργός","phoneNumber":"Ενήλικες-Παιδικά-Εσώρουχα-2106546434","long":"23.79784","lat":"37.99704","address":"Υμηττού Χολαργός,  "},{"name":"Benetton-Αχαΐας-Αίγιο","phoneNumber":"Ενήλικες-Εσώρουχα-2691022212","long":"22.08850","lat":"38.25068","address":"Οικονόμου+Πετμεζά Αίγιο, 25100"},{"name":"Benetton-Αχαΐας-Αίγιο","phoneNumber":"Παιδικά-2691022269","long":"22.08790","lat":"38.25040","address":"Ανδρέα Λόντου Αίγιο, 25100"},{"name":"Benetton-Αχαΐας-Πάτρα","phoneNumber":"Ενήλικες-Παιδικά-2610225733","long":"21.73466","lat":"38.24548","address":"Κορίνθου Πάτρα,  "},{"name":"Benetton-Αχαΐας-Πάτρα","phoneNumber":"Παιδικά-2610241130","long":"21.73669","lat":"38.24796","address":"Μαιζώνος Πάτρα, 26221"},{"name":"Benetton-Αχαΐας-Πάτρα","phoneNumber":"Ενήλικες-Παιδικά-Εσώρουχα-2610241130","long":"21.73520","lat":"38.24680","address":"Μαιζώνος Πάτρα, 26221"},{"name":"Benetton-Αχαΐας-Πάτρα","phoneNumber":"Ενήλικες-Παιδικά-Εσώρουχα-2610225733","long":"21.73925","lat":"38.24902","address":"Κορίνθου Πάτρα, "},{"name":"Benetton-Βοιωτίας-Θήβα","phoneNumber":"Ενήλικες-Παιδικά-Εσώρουχα-6946330672","long":"23.31800","lat":"38.31596","address":"Αίμωνος Θήβα, 32200"},{"name":"Benetton-Βοιωτίας-Λιβαδειά","phoneNumber":"Ενήλικες-Παιδικά-2261028656","long":"22.87836","lat":"38.43797","address":"Μπουφίδου Λιβαδειά, 32100"},{"name":"Benetton-Δράμας-Δράμα","phoneNumber":"Ενήλικες-2521036263","long":"24.15093","lat":"41.15163","address":"Γεωργίου Παπανδρέου Δράμα,  "},{"name":"Benetton-Δράμας-Δράμα","phoneNumber":"Παιδικά-2521036268","long":"24.14982","lat":"41.15087","address":"Γεωργίου Παπανδρέου Δράμα, 66100"},{"name":"Benetton-Δωδεκανήσου-Ιαλύσός","phoneNumber":"Παιδικά-2241033312","long":"28.15132","lat":"36.41693","address":"Λεωφόρος Ηρακλειδών Ιαλυσός, 85101"},{"name":"Benetton-Δωδεκανήσου-Κως","phoneNumber":"Ενήλικες-Παιδικά-2242025666","long":"27.29023","lat":"36.89233","address":"Βύρωνος Κως, 85300"},{"name":"Benetton-Δωδεκανήσου-Ρόδος","phoneNumber":"Παιδικά-2241033312","long":"28.22492","lat":"36.44828","address":"Κυρμιχάλη Ρόδος, 85100"},{"name":"Benetton-Έβρου-Αλεξανδρούπολη","phoneNumber":"Ενήλικες-Παιδικά-2551034327","long":"25.88753","lat":"40.84813","address":"Λεωφόρος Δημοκρατίας Αλεξανδρούπολη, 68100"},{"name":"Benetton-Έβρου-Ορεστιάδα","phoneNumber":"Ενήλικες-Παιδικά-Εσώρουχα-25520273377","long":"26.53102","lat":"41.49813","address":"Λεωφόρος Αγίων Θεοδώρων Ορεστιάδα,  "},{"name":"Benetton-Ευβοίας-Χαλκίδα","phoneNumber":"Παιδικά-2221023145","long":"23.59543","lat":"38.46491","address":"Αντωνίου Χαλκίδα, 34100"},{"name":"Benetton-Ευβοίας-Χαλκίδα","phoneNumber":"Ενήλικες-Εσώρουχα-2221021330","long":"23.59464","lat":"38.46463","address":"Σαλονικίου Χαλκίδα,  "},{"name":"Benetton-Ζακύνθου-Ζάκυνθος","phoneNumber":"Παιδικά-2695048548","long":"20.89817","lat":"37.78528","address":"Κλαυδιανού Ζάκυνθος, 29100"},{"name":"Benetton-Ζακύνθου-Ζάκυνθος","phoneNumber":"Εσώρουχα-2695029220","long":"20.89762","lat":"37.78599","address":"Λουντζή Ζάκυνθος, 29100"},{"name":"Benetton-Ζακύνθου-Ζάκυνθος","phoneNumber":"Ενήλικες-2695048548","long":"20.89823","lat":"37.78543","address":"Στεφάνου Ζάκυνθος, 29100"},{"name":"Benetton-Ηλείας-Αμαλιάδα","phoneNumber":"Ενήλικες-Παιδικά-2622021164","long":"21.35076","lat":"37.79706","address":"Δεληγιάννη Αμαλιάδα, 27200"},{"name":"Benetton-Ηλείας-Πύργος","phoneNumber":"Ενήλικες-2621025370","long":"21.43301","lat":"37.67568","address":"Πατρών Πύργος,  "},{"name":"Benetton-Ημαθίας-Βέροια","phoneNumber":"Εσώρουχα-2331024593","long":"22.20366","lat":"40.52357","address":"Προφήτη Ηλία Βέροια, 59100"},{"name":"Benetton-Ημαθίας-Βέροια","phoneNumber":"Ενήλικες-Παιδικά-2331066255","long":"22.20382","lat":"40.52597","address":"Ελευθερίου Βενιζέλου Βέροια, 59100"},{"name":"Benetton-Ημαθίας-Νάουσα","phoneNumber":"Παιδικά-2332028206","long":"22.06887","lat":"40.63130","address":"Ζαφειράκη Νάουσα, 59200"},{"name":"Benetton-Ηρακλείου-Ηράκλειο","phoneNumber":"Ενήλικες-Παιδικά-2810282318","long":"25.15813","lat":"35.34241","address":"Δημοκρατίας Ηράκλειο, 71500"},{"name":"Benetton-Ηρακλείου-Ηράκλειο","phoneNumber":"Ενήλικες-Παιδικά-Εσώρουχα-2810282318","long":"25.13261","lat":"35.33881","address":"Ίδης Ηράκλειο,  "},{"name":"Benetton-Θεσσαλονίκης-Θεσσαλονίκη","phoneNumber":"Ενήλικες-Παιδικά-Εσώρουχα-2310440050","long":"22.92736","lat":"40.66018","address":"Ιατρού Γωγούση Θεσσαλονίκη, 56430"},{"name":"Benetton-Θεσσαλονίκης-Θεσσαλονίκη","phoneNumber":"Παιδικά-2310230376","long":"22.94384","lat":"40.63220","address":"Τσιμισκή Θεσσαλονίκη, 54623"},{"name":"Benetton-Θεσσαλονίκης-Θεσσαλονίκη","phoneNumber":"Notos Galleries-Παιδικά-2310256750","long":"22.94112","lat":"40.63379","address":"Τσιμισκή Θεσσαλονίκη, 54624"},{"name":"Benetton-Θεσσαλονίκης-Θεσσαλονίκη","phoneNumber":"Ενήλικες-Παιδικά-Εσώρουχα-2310276576","long":"22.94235","lat":"40.63310","address":"Τσιμισκή Θεσσαλονίκη, 54623"},{"name":"Benetton-Θεσσαλονίκης-Θεσσαλονίκη","phoneNumber":"Ενήλικες-Παιδικά-Εσώρουχα-2310275302","long":"22.94532","lat":"40.63131","address":"Τσιμισκή Θεσσαλονίκη, 54622"},{"name":"Benetton-Θεσσαλονίκης-Θεσσαλονίκη","phoneNumber":"Ενήλικες-Εσώρουχα-2310234414","long":"22.94056","lat":"40.63412","address":"Τσιμισκή Θεσσαλονίκη,  "},{"name":"Benetton-Θεσσαλονίκης-Καλαμαριά","phoneNumber":"Ενήλικες-Παιδικά-Εσώρουχα-2310440050","long":"22.95466","lat":"40.58553","address":"Αιγαίου Καλαμαριά, 55133"},{"name":"Benetton-Θεσσαλονίκης-Πυλαία","phoneNumber":"Meditarranean Cosmos-Ενήλικες-Παιδικά-Εσώρουχα-2310474780","long":"22.99187","lat":"40.55393","address":"11ο χλμ Θεσσαλονίκης-Ν.Μουδανιών Πυλαία, 57001"},{"name":"Benetton-Θεσσαλονίκης-Πυλαία","phoneNumber":"Hondos Center-Εσώρουχα-2310473936","long":"22.98323","lat":"40.54745","address":"Λεωφόρος Γεωργικής Σχολής Πυλαία, 55535"},{"name":"Benetton-Ιωαννίνων-Ιωάννινα","phoneNumber":"Ενήλικες-Παιδικά-2651022173","long":"20.85226","lat":"39.66727","address":"Χαριλάου Τρικούπη Ιωάννινα,  "},{"name":"Benetton-Καβάλας-Θάσος","phoneNumber":"Ενήλικες-Παιδικά-2593022681","long":"24.70858","lat":"40.77973","address":"Γαλλικής Αρχαιολογικής Σχολής+18ης Οκτωβρίου Θάσος, 64004"},{"name":"Benetton-Καβάλας-Καβάλα","phoneNumber":"Ενήλικες-Παιδικά-Εσώρουχα-2510230093","long":"24.40917","lat":"40.93900","address":"Ομονοίας Καβάλα, 65304"},{"name":"Benetton-Καβάλας-Καβάλα","phoneNumber":"Παιδικά-2510228710","long":"24.40957","lat":"40.93878","address":"Ομονοίας Καβάλα, 65302"},{"name":"Benetton-Καβάλας-Καβάλα","phoneNumber":"Ενήλικες-Εσώρουχα-2510227339","long":"24.41063","lat":"40.93781","address":"Μεγάλου Αλεξάνδρου Καβάλα,  "},{"name":"Benetton-Καρδίτσας-Καρδίτσα","phoneNumber":"Ενήλικες-Παιδικά-2441075433","long":"21.92575","lat":"39.36437","address":"Σμύρνης Καρδίτσα,  "},{"name":"Benetton-Καστοριάς-Καστοριά","phoneNumber":"Ενήλικες-2467029943","long":"21.26208","lat":"40.52128","address":"Μεγάλου Αλεξάνδρου Καστοριά,  "},{"name":"Benetton-Καστοριάς-Καστοριά","phoneNumber":"Παιδικά-2467026111","long":"21.26190","lat":"40.52282","address":"Ιωάννη Μεταξά Καστοριά, 52100"},{"name":"Benetton-Κέρκυρας-Κέρκυρα","phoneNumber":"Ενήλικες-Εσώρουχα-2661043623","long":"19.92264","lat":"39.62486","address":"Πλατεία Ηρώων Κυπριακού Πολέμου Κέρκυρα,  "},{"name":"Benetton-Κέρκυρας-Κέρκυρα","phoneNumber":"Παιδικά-2661027164","long":"19.92220","lat":"39.62417","address":"Σεβαστιανού Κέρκυρα, 49100"},{"name":"Benetton-Κεφαλληνίας-Αργοστόλι","phoneNumber":"Παιδικά-2671028790","long":"20.49066","lat":"38.17429","address":"Δρακοπούλου Αργοστόλι,  "},{"name":"Benetton-Κεφαλληνίας-Αργοστόλι","phoneNumber":"Ενήλικες-2671024939","long":"20.49087","lat":"38.17451","address":"Σιτεμπόρων Αργοστόλι, 28100"},{"name":"Benetton-Κιλκίς-Κιλκίς","phoneNumber":"Ενήλικες-Παιδικά-Εσώρουχα-2341020601","long":"22.87525","lat":"40.99395","address":"21ης Ιουνίου Κιλκίς, 61100"},{"name":"Benetton-Κοζάνης-Κοζάνη","phoneNumber":"Εσώρουχα-2461027779","long":"21.78903","lat":"40.30111","address":"Συντεχνιών Κοζάνη, 50100"},{"name":"Benetton-Κοζάνης-Κοζάνη","phoneNumber":"Ενήλικες-2461023900","long":"21.78915","lat":"40.30133","address":"Μακεδονομάχων Κοζάνη,  "},{"name":"Benetton-Κοζάνης-Κοζάνη","phoneNumber":"Παιδικά-2461030003","long":"21.78968","lat":"40.30137","address":"Μακεδονομάχων Κοζάνη, 50100"},{"name":"Benetton-Κοζάνης-Πτολεμαΐδα","phoneNumber":"Παιδικά-2463080180","long":"21.67824","lat":"40.51302","address":"Βασιλέως Κωνσταντίνου Πτολεμαΐδα, 50200"},{"name":"Benetton-Κοζάνης-Πτολεμαΐδα","phoneNumber":"Εσώρουχα-2463055397","long":"21.67719","lat":"40.51244","address":"Βασιλέως Κωνσταντίνου Πτολεμαΐδα, 50200"},{"name":"Benetton-Κοζάνης-Πτολεμαΐδα","phoneNumber":"Ενήλικες-2463080180","long":"21.67881","lat":"40.51332","address":"Βασιλέως Κωνσταντίνου Πτολεμαΐδα, 50200"},{"name":"Benetton-Κορινθίας-Κιάτο","phoneNumber":"Παιδικά-2742020217","long":"22.75143","lat":"38.01050","address":"Κλεισθένους Κιάτο, 20200"},{"name":"Benetton-Κορινθίας-Κόρινθος","phoneNumber":"Ενήλικες-Εσώρουχα-2741024819","long":"22.93319","lat":"37.93951","address":"Εθνικής Αντιστάσεως Κόρινθος,  "},{"name":"Benetton-Κορινθίας-Κόρινθος","phoneNumber":"Παιδικά-2741072488","long":"22.93169","lat":"37.93760","address":"Αδείμαντου Κόρινθος, 20100"},{"name":"Benetton-Κυκλάδων-Σύρος","phoneNumber":"Ενήλικες-Παιδικά-Εσώρουχα-2281079640","long":"24.94208","lat":"37.44351","address":"Σταμάτη Πρωΐου Ερμούπολη, 84100"},{"name":"Benetton-Λακωνίας-Σπάρτη","phoneNumber":"Ενήλικες-Παιδικά-Εσώρουχα-2731083720","long":"22.43069","lat":"37.07332","address":"Κωνσταντίνου Παλαιολόγου Σπάρτη, 23100"},{"name":"Benetton-Λαρίσης-Λάρισα","phoneNumber":"Ενήλικες-Παιδικά-Εσώρουχα-2410531885","long":"22.42080","lat":"39.63773","address":"Κούμα Λάρισα, 41500"},{"name":"Benetton-Λασιθίου-Ιεράπετρα","phoneNumber":"Εσώρουχα-2842025428","long":"25.73934","lat":"35.00841","address":"Πλατεία Ελευθερίας Ιεράπετρα, 72200"},{"name":"Benetton-Λέσβου-Μυτιλήνη","phoneNumber":"Ενήλικες-Παιδικά-Εσώρουχα-2251040092","long":"26.55593","lat":"39.10645","address":"Ερμού Μυτιλήνη, 81100"},{"name":"Benetton-Λέσβου-Μυτιλήνη","phoneNumber":"Εσώρουχα-2251043653","long":"26.55606","lat":"39.10663","address":"Ερμού Μυτιλήνη, 81100"},{"name":"Benetton-Μαγνησίας-Βόλος","phoneNumber":"Ενήλικες-Παιδικά-Εσώρουχα-2421032322","long":"22.94410","lat":"39.36252","address":"Ρόζου Βόλος, 38333"},{"name":"Benetton-Μεσσηνίας-Καλαμάτα","phoneNumber":"Ενήλικες-Παιδικά-2721022845","long":"22.11141","lat":"37.03481","address":"Βασιλέως Κωνσταντίνου+Αριστοδήμου Καλαμάτα, 24100"},{"name":"Benetton-Μεσσηνίας-Καλαμάτα","phoneNumber":"Εσώρουχα-2721088161","long":"22.11158","lat":"37.03918","address":"Καίσαρη Καλαμάτα, 24100"},{"name":"Benetton-Ξάνθης-Ξάνθη","phoneNumber":"Ενήλικες-Παιδικά-Εσώρουχα-2541021437","long":"24.88741","lat":"41.13475","address":"28ης Οκτωβρίου Ξάνθη, 67100"},{"name":"Benetton-Πέλλας-Αριδαία","phoneNumber":"Ενήλικες-Παιδικά-2384028605","long":"22.06177","lat":"40.97356","address":"Αθανασίου Διάκου+Χρυσοστόμου Σμύρνης Αριδαία, 58400"},{"name":"Benetton-Πέλλας-Γιαννιτσά","phoneNumber":"Ενήλικες-Παιδικά-2382082218","long":"22.41225","lat":"40.79139","address":"Δημάρχου Στάμκου Γιαννιτσά, 58100"},{"name":"Benetton-Πέλλας-Έδεσσα","phoneNumber":"Ενήλικες-Παιδικά-2381022666 ","long":"22.04618","lat":"40.80163","address":"Μοναστηρίου Έδεσσα,  "},{"name":"Benetton-Πιερίας-Κατερίνη","phoneNumber":"Ενήλικες-Παιδικά-Εσώρουχα-2351039077","long":"22.50530","lat":"40.27174","address":"Κώστα Βάρναλη Κατερίνη,  "},{"name":"Benetton-Πρεβέζης-Πρέβεζα","phoneNumber":"Παιδικά-2682021495","long":"20.75255","lat":"38.95780","address":"21ης Οκτωβρίου Πρέβεζα, 48100"},{"name":"Benetton-Πρεβέζης-Πρέβεζα","phoneNumber":"Ενήλικες-2682021495","long":"20.75194","lat":"38.95696","address":"Λεωφόρος Ειρήνης+Κοντού Πρέβεζα, 48100"},{"name":"Benetton-Ρεθύμνου-Ρέθυμνο","phoneNumber":"Εσώρουχα-2831053601","long":"24.47658","lat":"35.36816","address":"Αρκαδίου Ρέθυμνο, 74100"},{"name":"Benetton-Ρεθύμνου-Ρέθυμνο","phoneNumber":"Ενήλικες-Παιδικά-2831028209","long":"24.47607","lat":"35.36896","address":"Αρκαδίου Ρέθυμνο,  "},{"name":"Benetton-Ροδόπης-κομοτηνή","phoneNumber":"Ενήλικες-Παιδικά-Εσώρουχα-2531022415","long":"25.40384","lat":"41.11769","address":"Πλατεία Ειρήνης Κομοτηνή, 69100"},{"name":"Benetton-Σάμου-Σάμος","phoneNumber":"Ενήλικες-Παιδικά-Εσώρουχα-2273024840","long":"26.97708","lat":"37.75555","address":"Κονταξή Σάμος, 83100"},{"name":"Benetton-Σερρών-Σέρρες","phoneNumber":"Ενήλικες-Παιδικά-2321054149","long":"23.54748","lat":"41.08970","address":"Σκρα Σέρρες, 62100"},{"name":"Benetton-Σερρών-Σέρρες","phoneNumber":"Εσώρουχα-2321029555","long":"23.54958","lat":"41.09027","address":"Ερμού Σέρρες, 62100"},{"name":"Benetton-Τρικάλων-Τρίκαλα","phoneNumber":"Παιδικά-2431076253","long":"21.76679","lat":"39.55454","address":"Ιουλιέτας Αδάμ Τρίκαλα, 42100"},{"name":"Benetton-Τρικάλων-Τρίκαλα","phoneNumber":"Εσώρουχα-2141038620","long":"21.76625","lat":"39.55407","address":"Ιουλιέτας Αδάμ Τρίκαλα, 42100"},{"name":"Benetton-Τρικάλων-Τρίκαλα","phoneNumber":"Ενήλικες-2431076253","long":"21.76653","lat":"39.55375","address":"Καρανάσιου Τρίκαλα,  "},{"name":"Benetton-Φθιώτιδας-Λαμία","phoneNumber":"Ενήλικες-Παιδικά-Εσώρουχα-2231046552","long":"22.43234","lat":"38.89891","address":"Βύρωνος+Χατζόπουλου Λαμία, 35100"},{"name":"Benetton-Φθιώτιδας-Λαμία","phoneNumber":"Πολυκατάστημα Πολιτικός-Εσώρουχα-2231038604","long":"22.43556","lat":"38.90000","address":"Αμαλίας Λαμία, 35100"},{"name":"Benetton-Φλώρινας-Φλώρινα","phoneNumber":"Παιδικά-2385044409","long":"21.40920","lat":"40.78105","address":"Νικολάου Χάσου Φλώρινα, 53100"},{"name":"Benetton-Φλώρινας-Φλώρινα","phoneNumber":"Ενήλικες-Εσώρουχα-2385024457","long":"21.40877","lat":"40.78077","address":"Νικολάου Χάσου Φλώρινα, 53100"},{"name":"Benetton-Χανίων-Χανιά","phoneNumber":"Εσώρουχα-2821020070","long":"24.02196","lat":"35.51301","address":"Τζανακάκη Χανιά, 73134"},{"name":"Benetton-Χίου-Χίος","phoneNumber":"Ενήλικες-Παιδικά-2271041921","long":"26.13762","lat":"38.36929","address":"Ροδοκανάκη+Καναλά Χίος, 82100"},{"name":"Marks and Spencer-Αττική-Αθήνα","phoneNumber":"2103240675","long":"23.73058","lat":"37.97614","address":"Ερμού Αθήνα,  "},{"name":"Marks and Spencer-Αττική-Αθήνα","phoneNumber":"Outlet-2103731102","long":"23.72737","lat":"37.97613","address":"Μητροπόλεως Αθήνα, 10555"},{"name":"Marks and Spencer-Αττική-Αθήνα","phoneNumber":"2103224025","long":"23.72846","lat":"37.98022","address":"Αιόλου Αθήνα,  "},{"name":"Marks and Spencer-Αττική-Αθήνα-Κολωνάκι","phoneNumber":"2107296401","long":"23.74168","lat":"37.97676","address":"Καψάλη Αθήνα,  "},{"name":"Marks and Spencer-Αττική-Βριλήσσια","phoneNumber":"2106132774","long":"23.83095","lat":"38.04002","address":"Λεωφόρος Πεντέλης Βριλήσσια, 15235"},{"name":"Marks and Spencer-Αττική-Γαλάτσι","phoneNumber":"2108835522","long":"23.73334","lat":"37.99979","address":"Πατησίων Γαλάτσι,  "},{"name":"Marks and Spencer-Αττική-Γέρακας","phoneNumber":"2106654373","long":"23.8631702","lat":"38.0069314","address":"Λεωφόρος Μαραθώνος Γέρακας, 15344"},{"name":"Marks and Spencer-Αττική-Γλυφάδα","phoneNumber":"2109630825","long":"23.76056","lat":"37.87167","address":"Ανθέων Γλυφάδα,  "},{"name":"Marks and Spencer-Αττική-Γλυφάδα","phoneNumber":"2108943147","long":"23.74725","lat":"37.86404","address":"Λαζαράκη Γλυφάδα, 16675"},{"name":"Marks and Spencer-Αττική-Κηφισιά","phoneNumber":"2108018130","long":"23.81613","lat":"38.07222","address":"Κύπρου Κηφισιά,  "},{"name":"Marks and Spencer-Αττική-Μαρούσι","phoneNumber":"The Mall Athens-2106300294","long":"23.79151","lat":"38.04512","address":"Ανδρέα Παπανδρέου Μαρούσι, 15125"},{"name":"Marks and Spencer-Αττική-Νέα Ερυθραία","phoneNumber":"2108070208","long":"23.81497","lat":"38.08855","address":"Χαριλάου Τρικούπη Νέα Ερυθραία, 14671"},{"name":"Marks and Spencer-Αττική-Νέα Ιωνία","phoneNumber":"2102720390","long":"23.75505","lat":"38.04399","address":"Λεωφόρος Ηρακλείου Νέα Ιωνία, 14231"},{"name":"Marks and Spencer-Αττική-Νέο Ψυχικό","phoneNumber":"2106778402","long":"23.77679","lat":"38.00515","address":"Ομήρου Νέο Ψυχικό, 15451"},{"name":"Marks and Spencer-Αττική-Πειραιάς","phoneNumber":"2104296219","long":"23.64881","lat":"37.93965","address":"Λεωφόρος Γρηγορίου Λαμπράκη Πειραιάς,  "},{"name":"Marks and Spencer-Αχαΐας-Πάτρα","phoneNumber":"2610623247","long":"21.73608","lat":"38.24748","address":"Μαιζώνος Πάτρα,  "},{"name":"Marks and Spencer-Δωδεκανήσου-Ρόδος","phoneNumber":"2241035679","long":"28.22226","lat":"36.44776","address":"Αλεξάνδρου Διάκου Ρόδος, 85100"},{"name":"Marks and Spencer-Ηρακλείου-Ηράκλειο ","phoneNumber":"2810343882","long":"25.13363","lat":"35.33851","address":"Λεωφόρος Δικαιοσύνης Ηράκλειο,  "},{"name":"Marks and Spencer-Θεσσαλονίκης-Θεσσαλονίκη","phoneNumber":"2310244770","long":"22.94285","lat":"40.63278","address":"Τσιμισκή Θεσσαλονίκη,  "},{"name":"Marks and Spencer-Θεσσαλονίκης-Θεσσαλονίκη","phoneNumber":"2310257515","long":"22.94667","lat":"40.63039","address":"Τσιμισκή Θεσσαλονίκη, 54622"},{"name":"Marks and Spencer-Θεσσαλονίκης-Πύλαια","phoneNumber":"2310473042","long":"22.96011","lat":"40.60787","address":"Τομπάζη Πύλαια,  "},{"name":"Marks and Spencer-Θεσσαλονίκης-Πύλαια","phoneNumber":"2310474337","long":"22.99187","lat":"40.55393","address":"11ο χλμ Θεσσαλονίκης-Ν. Μουδανιών Πυλαία, 57001"},{"name":"Marks and Spencer-Καβάλας-Καβάλα","phoneNumber":"2510230360","long":"24.40946","lat":"40.93796","address":"Μεγάλου Αλεξάνδρου Καβάλα, 65403"},{"name":"Marks and Spencer-Κέρκυρας-Κέρκυρα","phoneNumber":"2661041360","long":"19.91984","lat":"39.62274","address":"Λεωφόρος Θεοτόκη Κέρκυρα,  "},{"name":"Marks and Spencer-Μαγνησίας-Βόλος","phoneNumber":"2421027351","long":"22.94883","lat":"39.36037","address":"Ερμού Βόλος, 38221"},{"name":"Marks and Spencer-Τρικάλων-Τρίκαλα","phoneNumber":"2431071631","long":"21.76655","lat":"39.55519","address":"Βύρωνος+Κανουτά Τρίκαλα, 42100"},{"name":"Marks and Spencer-Χανίων-Χανιά","phoneNumber":"2821055552","long":"24.02218","lat":"35.51352","address":"Χιωτάκη Χανιά, 73132"},{"name":"Tommy Hilfiger-Αττική-Άγιος Δημήτριος","phoneNumber":"Athens Metro Mall-2109764900","long":"23.74074","lat":"37.93945","address":"Λεωφόρος Βουλιαγμένης Άγιος Δημήτριος, 17343"},{"name":"Tommy Hilfiger-Αττική-Γλυφάδα","phoneNumber":"2108941675","long":"23.75125","lat":"37.86265","address":"Δημάρχου Άγγελου Μεταξά Γλυφάδα, 16675"},{"name":"Tommy Hilfiger-Αττική-Μαρούσι","phoneNumber":"Golden Hall-2106837898","long":"23.79433","lat":"38.03289","address":"Λεωφόρος Κηφισίας Μαρούσι, 15123"},{"name":"Tommy Hilfiger-Αττική-Μαρούσι","phoneNumber":"The Mall Athens-2106195576","long":"23.79151","lat":"38.04512","address":"Ανδρέα Παπανδρέου Μαρούσι, 15125"},{"name":"Tommy Hilfiger-Αχαΐας-Πάτρα","phoneNumber":"2610622273","long":"21.73536","lat":"38.24805","address":"Ρήγα Φεραίου Πάτρα, 26221"},{"name":"Tommy Hilfiger-Δωδεκανήσου-Ρόδος","phoneNumber":"2241024482","long":"28.22279","lat":"36.44976","address":"Αμερικής Ρόδος, 85100"},{"name":"Tommy Hilfiger-Ηρακλείου-Ηράκλειο","phoneNumber":"2810390074","long":"25.13184","lat":"35.33886","address":"Λεωφόρος Καλοκαιρινού Ηράκλειο, 71201"},{"name":"Tommy Hilfiger-Ηρακλείου-Ηράκλειο","phoneNumber":"2821053539","long":"25.13470","lat":"35.33057","address":"Λεωφόρος Γεωργίου Παπανδρέου Ηράκλειο, 71305"},{"name":"Tommy Hilfiger-Θεσσαλονίκης-Θεσσαλονίκη","phoneNumber":"2310230311","long":"22.94504","lat":"40.63146","address":"Τσιμισκή Θεσσαλονίκη, 54622"},{"name":"Tommy Hilfiger-Θεσσαλονίκης-Πυλαία","phoneNumber":"Mediterranean Cosmos-2310474032","long":"22.99187","lat":"40.55393","address":"11ο χλμ Θεσσαλονίκης-Ν.Μουδανιών Πυλαία, 57001"},{"name":"Tommy Hilfiger-Μαγνησίας-Βόλος","phoneNumber":"2421030242","long":"22.94826","lat":"39.36073","address":"Σπύρου Σπυρίδη Βόλος, 38221"},{"name":"Nike-Αττική-Αθήνα-Κολωνάκι","phoneNumber":"2103621372 ","long":"23.74063","lat":"37.97596","address":"Κουμπάρη Αθήνα, 10674"},{"name":"Nike-Αττική-Αθήνα-Παγκράτι","phoneNumber":"2107016510","long":"23.75170","lat":"37.96857","address":"Υμηττού Αθήνα, 11634"},{"name":"Nike-Αττική-Αθήνα-Σύνταγμα","phoneNumber":"2103224407","long":"23.73367","lat":"37.97569","address":"Ερμού Αθήνα, 10563"},{"name":"Nike-Αττική-Βούλα","phoneNumber":"2108980226","long":"23.75867","lat":"37.85220","address":"Μεταξά Βούλα, 16673"},{"name":"Nike-Αττική-Γλυφάδα","phoneNumber":"2109699451","long":"23.75876","lat":"37.87055","address":"Λεωφόρος Βουλιαγμένης Γλυφάδα, 16675"},{"name":"Nike-Αττική-Καλλιθέα","phoneNumber":"2109577080","long":"23.70473","lat":"37.95770","address":"Λεωφόρος Θησέως Καλλιθέα, 17676"},{"name":"Nike-Αττική-Κηφισιά","phoneNumber":"2108089879","long":"23.81526","lat":"38.07263","address":"Κολοκοτρώνη Κηφισιά, 14562"},{"name":"Nike-Αττική-Μαρούσι","phoneNumber":"The Mall Athens-2103356465","long":"23.79151","lat":"38.04512","address":"Ανδρέα Παπανδρέου Μαρούσι, 15123"},{"name":"Nike-Αττική-Μαρούσι","phoneNumber":"Golden Hall-2106838226","long":"23.79433","lat":"38.03289","address":"Λεωφόρος Κηφισίας Μαρούσι, 15123"},{"name":"Nike-Αττική-Μαρούσι","phoneNumber":"Avenue Mall-2106105912","long":"23.79616","lat":"38.03480","address":"Λεωφόρος Κηφισίας Μαρούσι, 15124"},{"name":"Nike-Αττική-Μοσχάτο","phoneNumber":"2104810807","long":"23.67500","lat":"37.95510","address":"Πειραιώς Μοσχάτο, 18346"},{"name":"Nike-Αττική-Νέα Ερυθραία","phoneNumber":"2108001946","long":"23.80908","lat":"38.09283","address":"Τατοΐου Νέα Ερυθραία, 14564"},{"name":"Nike-Αττική-Νέα Ιωνία","phoneNumber":"2102790540","long":"23.75135","lat":"38.04088","address":"Λεωφόρος Ηρακλείου Νέα Ιωνία, 14231"},{"name":"Nike-Αττική-Πειραιάς","phoneNumber":"2104135637","long":"23.64706","lat":"37.94167","address":"Καραΐσκου Πειραιάς, 18535"},{"name":"Nike-Αττική-Περιστέρι","phoneNumber":"2117259412","long":"23.69212","lat":"38.01321","address":"Σαρανταπόρου Περιστέρι, 12134"},{"name":"Nike-Αττική-Σπάτα","phoneNumber":"Επίπεδο Αναχωρήσεων-2103534305","long":"23.94676","lat":"37.93690","address":"Εμπορικό Κέντρο Αεροδρομίου Σπάτα, 19004"},{"name":"Nike-Αττική-Σπάτα","phoneNumber":"McArthur Glen-2106638000","long":"23.91101","lat":"37.98687","address":"Οικοδομικό Τετράγωνο Ε71 Σπάτα, 19004"},{"name":"Nike-Αττική-Χαλάνδρι","phoneNumber":"2106776687","long":"23.78805","lat":"38.01862","address":"Λεωφόρος Κηφισίας Χαλάνδρι, 15232"},{"name":"Nike-Δωδεκανήσου-Ρόδος","phoneNumber":"2241077900","long":"28.22475","lat":"36.44765","address":"Αβέρωφ+Παλαμά Ρόδος, 85100"},{"name":"Nike-Ηλείας-Πύργος","phoneNumber":"2621033081","long":"21.43767","lat":"37.67267","address":"28ης Οκτωβρίου+Καστόρχη Πύργος, 27100"},{"name":"Nike-Ηρακλείου-Ηράκλειο","phoneNumber":"2810370110","long":"25.11527","lat":"35.33380","address":"Λεωφόρος 62 Μαρτύρων Ηράκλειο, 71304"},{"name":"Nike-Ηρακλείου-Ηράκλειο","phoneNumber":"2810330561","long":"25.13279","lat":"35.33824","address":"Οδός 1821 Ηράκλειο, 71201"},{"name":"Nike-Θεσσαλονίκης-Πυλαία","phoneNumber":"Mediterranean Cosmos-2310474291","long":"22.99187","lat":"40.55393","address":"11ο χλμ Θεσσαλονίκης - Ν. Μουδανιών Πυλαία, 57001"},{"name":"Nike-Θεσσαλονίκης-Πυλαία","phoneNumber":"Mega Outlet-2310474119","long":"22.97751","lat":"40.55900","address":"Λεωφόρος Γεωργικής Σχολής Πυλαία, 57001"},{"name":"Nike-Λαρίσης-Λάρισα","phoneNumber":"2410538234","long":"22.41726","lat":"39.63776","address":"Κούμα Λάρισα, 41222"},{"name":"Nike-Μαγνησίας-Βόλος","phoneNumber":"2421035105","long":"22.94862","lat":"39.35892","address":"Ιάσονος Βόλος, 38221"},{"name":"Nike-Μεσσηνίας-Καλαμάτα","phoneNumber":"2103356419","long":"22.11200","lat":"37.04207","address":"Αριστομένους Καλαμάτα, 24100"},{"name":"Nike-Ξάνθης-Ξάνθη","phoneNumber":"Flamingo Retail Park-2541066681","long":"24.92571","lat":"41.10988","address":"4ο χλμ. Ξάνθης - Πόρτο Λάγος Ξάνθη, 67100"},{"name":"Nike-Ροδόπης-Κομοτηνή","phoneNumber":"2531036089","long":"25.41120","lat":"41.11353","address":"Σισμανόγλου+Καράβελα Κομοτηνή, 69100"},{"name":"Lacoste-Αττίκη-Γλυφάδα","phoneNumber":"2108982204","long":"23.75321","lat":"37.86152","address":"Λεωφόρος Δημάρχου Άγγελου Μεταξά Γλυφάδα Αττίκης,  "},{"name":"Lacoste-Αττίκη-Κηφισιά","phoneNumber":"2108019240","long":"23.81294","lat":"38.07217","address":"Κασσαβέτη Κηφισιά Αττίκης,  "},{"name":"Lacoste-Αττίκη-Κολωνάκι","phoneNumber":"2103618030","long":"23.73918","lat":"37.97743","address":"Σόλωνος Κολωνάκι Αττίκης,  "},{"name":"Lacoste-Αττίκη-Κυψέλη","phoneNumber":"2108224518","long":"23.73286","lat":"37.99770","address":"Λεωφόρος Πατησίων Κυψέλη Αττίκης,  "},{"name":"Lacoste-Πάτρα","phoneNumber":" ","long":"21.73560","lat":"38.24710","address":"Ερμού και Μαιζώνος Πάτρα, "}]